"UKBOTA Ref","Name","Type","Area","Latitude","Longitude","OS Grid","WAB","PostCode","Locator"
"B/G-0001","ROC Post Pavenham","ROC Bunker","Bedfordshire","52.18983","-0.58041","SP 9714 5557","SP95","MK43 7NB","IO92RE"
"B/G-0002","ROC Post Toddington","ROC Bunker","Bedfordshire","51.92689","-0.53375","TL 0092 2639","TL02","LU5 6JL","IO91RW"
"B/G-0003","ROC Post Ampthill","ROC Bunker","Bedfordshire","52.02972","-0.50298","TL 0280 3787","TL03","MK45 2GT","IO92RA"
"B/G-0004","ROC Post Riseley","ROC Bunker","Bedfordshire","52.25162","-0.46754","TL 0471 6260","TL06","MK44 1DP","IO92SG"
"B/G-0005","ROC Post Ravensden","ROC Bunker","Bedfordshire","52.16761","-0.41721","TL 0835 5333","TL05","MK41 0JJ","IO92SE"
"B/G-0006","ROC Post Sandy","ROC Bunker","Bedfordshire","52.13344","-0.31921","TL 1514 4968","TL14","MK44 3DE","IO92UD"
"B/G-0007","ROC Post Shefford","ROC Bunker","Bedfordshire","52.03247","-0.31367","TL 1578 3846","TL13","SG17 5PT","IO92UA"
"B/G-0008","ROC Post Ashbury Master Post","ROC Bunker","Berkshire","51.55945","-1.61019","SU 2712 8458","SU28","SN6 8LZ","IO91EN"
"B/G-0009","ROC Post Great Shefford","ROC Bunker","Berkshire","51.46301","-1.46001","SU 3761 7392","SU37","RG17 7BP","IO91GL"
"B/G-0010","ROC Post Wantage","ROC Bunker","Oxfordshire","51.58169","-1.41979","SU 4030 8714","SU48","OX12 8PB","IO91GN"
"B/G-0011","ROC Post Longworth","ROC Bunker","Berkshire","51.69382","-1.40504","SU 4122 9962","SU49","OX13 5LT","IO91HQ"
"B/G-0012","ROC Post Newbury","ROC Bunker","Berkshire","51.38352","-1.35274","SU 4514 6514","SU46","RG14 6RD","IO91HJ"
"B/G-0013","ROC Post East Ilsley","ROC Bunker","Berkshire","51.52334","-1.30493","SU 4832 8072","SU48","RG20 7DJ","IO91IM"
"B/G-0014","ROC Post Cold Ash","ROC Bunker","Berkshire","51.42070","-1.25457","SU 5193 6934","SU56","RG18 9HT","IO91IK"
"B/G-0015","ROC Post Streatley Master Post","ROC Bunker","Berkshire","51.51619","-1.17389","SU 5742 8002","SU58","RG8 9RE","IO91JM"
"B/G-0016","ROC Post Bradfield","ROC Bunker","Berkshire","51.43696","-1.13432","SU 6027 7124","SU67","RG7 6AD","IO91KK"
"B/G-0017","ROC Post Arborfield","ROC Bunker","Berkshire","51.39032","-0.91128","SU 7585 6626","SU76","RG2 9JS","IO91NJ"
"B/G-0018","ROC Post Shurlock Row","ROC Bunker","Berkshire","51.46563","-0.82268","SU 8188 7473","SU87","RG10 0PJ","IO91OL"
"B/G-0019","ROC Post Crowthorne","ROC Bunker","Berkshire","51.37256","-0.78757","SU 8449 6442","SU86","RG45 6SR","IO91OI"
"B/G-0020","ROC Post Ascot","ROC Bunker","Berkshire","51.41675","-0.67438","SU 9228 6947","SU96","SL5 7LJ","IO91PK"
"B/G-0021","ROC Post Windsor","ROC Bunker","Berkshire","51.48451","-0.60156","SU 9720 7710","SU97","SL4 1QE","IO91QL"
"B/G-0022","ROC Post Buckingham","ROC Bunker","Buckinghamshire","51.98472","-0.97775","SP 7030 3230","SP73","MK18 1SZ","IO91MX"
"B/G-0023","ROC Post Stony Stratford","ROC Bunker","Buckinghamshire","52.06466","-0.87089","SP 7750 4130","SP74","MK19 6FL","IO92NB"
"B/G-0024","ROC Post Whitchurch","ROC Bunker","Buckinghamshire","51.88219","-0.84743","SP 7943 2103","SP72","HP22 4JJ","IO91NV"
"B/G-0025","ROC Post Princes Risborough","ROC Bunker","Buckinghamshire","51.70831","-0.84071","SP 8020 0170","SP80","HP27 9NL","IO91NQ"
"B/G-0026","ROC Post Weston Turville","ROC Bunker","Buckinghamshire","51.80016","-0.76555","SP 8522 1200","SP81","HP22 5QY","IO91OT"
"B/G-0027","ROC Post Bletchley","ROC Bunker","Buckinghamshire","51.98225","-0.72444","SP 8770 3230","SP83","MK2 3DS","IO91PX"
"B/G-0028","ROC Post Olney Master Post","ROC Bunker","Buckinghamshire","52.10246","-0.69985","SP 8915 4570","SP84","MK16 9NN","IO92PC"
"B/G-0029","ROC Post Cheddington","ROC Bunker","Buckinghamshire","51.84412","-0.67391","SP 9145 1700","SP91","LU7 0RS","IO91PU"
"B/G-0030","ROC Post Great Missenden","ROC Bunker","Buckinghamshire","51.71022","-0.66481","SP 9235 0212","SP90","HP16 0RW","IO91QR"
"B/G-0031","ROC Post Marlow","ROC Bunker","Buckinghamshire","51.57496","-0.76935","SU 8538 8695","SU88","SL7 1HF","IO91ON"
"B/G-0032","ROC Post Beaconsfield","ROC Bunker","Buckinghamshire","51.59533","-0.66673","SU 9245 8934","SU98","HP9 1XD","IO91PO"
"B/G-0033","ROC Post Parson Drove","ROC Bunker","Cambridgeshire","52.66693","0.03808","TF 3792 0964","TF30","PE13 4LD","JO02AQ"
"B/G-0034","ROC Post Whittlesey","ROC Bunker","Cambridgeshire","52.56574","-0.10561","TL 2850 9812","TL29","PE7 1YZ","IO92WN"
"B/G-0035","ROC Post Caxton","ROC Bunker","Cambridgeshire","52.21557","-0.09727","TL 3009 5919","TL35","CB23 3PG","IO92WF"
"B/G-0036","ROC Post Arrington","ROC Bunker","Cambridgeshire","52.13441","-0.07121","TL 3211 5021","TL35","SG8 0BG","IO92XD"
"B/G-0037","ROC Post Benwick","ROC Bunker","Cambridgeshire","52.48073","-0.03121","TL 3380 8880","TL38","PE26 2XT","IO92XL"
"B/G-0038","ROC Post March","ROC Bunker","Cambridgeshire","52.53431","0.06938","TL 4046 9495","TL49","PE15 9QD","JO02AM"
"B/G-0039","ROC Post Willingham","ROC Bunker","Cambridgeshire","52.26550","0.06710","TL 4116 6505","TL46","CB24 3AT","JO02AG"
"B/G-0040","ROC Post Harston","ROC Bunker","Cambridgeshire","52.12957","0.09090","TL 4322 4998","TL44","CB22 7NZ","JO02BD"
"B/G-0041","ROC Post Sutton Master Post","ROC Bunker","Cambridgeshire","52.38099","0.11584","TL 4411 7799","TL47","CB6 2PD","JO02BJ"
"B/G-0042","ROC Post Manea","ROC Bunker","Cambridgeshire","52.47813","0.16895","TL 4740 8890","TL48","PE15 0US","JO02CL"
"B/G-0043","ROC Post Cherry Hinton","ROC Bunker","Cambridgeshire","52.16930","0.18109","TL 4926 5458","TL45","CB21 5EQ","JO02CE"
"B/G-0044","ROC Post Stretham","ROC Bunker","Cambridgeshire","52.35159","0.21884","TL 5122 7493","TL57","CB6 3JH","JO02CI"
"B/G-0045","ROC Post Linton","ROC Bunker","Cambridgeshire","52.09503","0.26696","TL 5539 4650","TL54","CB21 4NW","JO02DC"
"B/G-0046","ROC Post Bottisham","ROC Bunker","Cambridgeshire","52.23670","0.28311","TL 5600 6229","TL56","CB25 0LU","JO02DF"
"B/G-0047","ROC Post Littleport","ROC Bunker","Cambridgeshire","52.44275","0.29934","TL 5638 8524","TL58","CB6 1HP","JO02DK"
"B/G-0048","ROC Post Fordham","ROC Bunker","Cambridgeshire","52.37107","0.35042","TL 6011 7738","TL67","CB7 5UG","JO02EI"
"B/G-0049","ROC Post Caldy","ROC Bunker","Merseyside","53.38110","-3.14535","SJ 2391 8775","SJ28","CH48 1PQ","IO83KJ"
"B/G-0050","ROC Post Neston","ROC Bunker","Merseyside","53.30907","-3.02981","SJ 3148 7962","SJ37","CH63 4JJ","IO83LH"
"B/G-0051","ROC Post Saughall","ROC Bunker","Cheshire","53.21705","-2.95017","SJ 3665 6931","SJ36","CH1 6AG","IO83MF"
"B/G-0052","ROC Post Aldford","ROC Bunker","Cheshire","53.12155","-2.87231","SJ 4172 5862","SJ45","CH3 6HT","IO83NC"
"B/G-0053","ROC Post Helsby Master Post","ROC Bunker","Cheshire","53.27350","-2.76263","SJ 4924 7544","SJ47","WA6 9PL","IO83OG"
"B/G-0054","ROC Post Malpas","ROC Bunker","Cheshire","53.02644","-2.75513","SJ 4945 4795","SJ44","SY14 8DQ","IO83OA"
"B/G-0055","ROC Post Tarporley","ROC Bunker","Cheshire","53.16985","-2.69018","SJ 5396 6386","SJ56","CW6 0EF","IO83PE"
"B/G-0056","ROC Post Preston on the Hill","ROC Bunker","Cheshire","53.33226","-2.64565","SJ 5710 8190","SJ58","WA4 4BS","IO83QH"
"B/G-0057","ROC Post Faddiley","ROC Bunker","Cheshire","53.07380","-2.61745","SJ 5873 5313","SJ55","CW5 8JE","IO83QB"
"B/G-0058","ROC Post Audlem","ROC Bunker","Cheshire","52.99989","-2.50657","SJ 6610 4485","SJ64","CW3 0HF","IO82RX"
"B/G-0059","ROC Post Northwich","ROC Bunker","Cheshire","53.24625","-2.49180","SJ 6728 7225","SJ67","CW9 7NY","IO83SF"
"B/G-0060","ROC Post Middlewich","ROC Bunker","Cheshire","53.19289","-2.43775","SJ 7085 6629","SJ76","CW10 0HU","IO83SE"
"B/G-0061","ROC Post Altrincham","ROC Bunker","Greater Manchester","53.39516","-2.43050","SJ 7147 8879","SJ78","WA13 9UT","IO83SJ"
"B/G-0062","ROC Post Crewe","ROC Bunker","Cheshire","53.06523","-2.41616","SJ 7221 5208","SJ75","CW2 5LX","IO83TB"
"B/G-0063","ROC Post Knutsford","ROC Bunker","Cheshire","53.31138","-2.37908","SJ 7484 7945","SJ77","WA16 6SZ","IO83TH"
"B/G-0064","ROC Post Sandbach","ROC Bunker","Cheshire","53.15532","-2.35467","SJ 7638 6208","SJ76","CW11 4TE","IO83TD"
"B/G-0065","ROC Post Macclesfield","ROC Bunker","Cheshire","53.25000","-2.11401","SJ 9249 7256","SJ97","SK11 7HA","IO83WG"
"B/G-0066","ROC Post Poynton","ROC Bunker","Cheshire","53.34044","-2.10359","SJ 9320 8262","SJ98","SK12 1FR","IO83WI"
"B/G-0067","ROC Post Hyde","ROC Bunker","Greater Manchester","53.43017","-2.06498","SJ 9578 9260","SJ99","SK14 3AA","IO83XK"
"B/G-0068","ROC Post Kilkhampton Master Post","ROC Bunker","Cornwall","50.89375","-4.47822","SS 2581 1340","SS21","EX23 9RJ","IO70SV"
"B/G-0069","ROC Post Sennen","ROC Bunker","Cornwall","50.07100","-5.69236","SW 3589 2552","SW32","TR19 7AD","IO70DB"
"B/G-0070","ROC Post Madron Master Post","ROC Bunker","Cornwall","50.14646","-5.58701","SW 4383 3354","SW43","TR20 8NZ","IO70ED"
"B/G-0071","ROC Post St. Ives - Cornwall","ROC Bunker","Cornwall","50.18999","-5.47228","SW 5225 3799","SW53","TR26 3HP","IO70GE"
"B/G-0072","ROC Post Helston","ROC Bunker","Cornwall","50.09888","-5.28932","SW 6486 2727","SW62","TR13 0FD","IO70IC"
"B/G-0073","ROC Post Praze-An-Beeble","ROC Bunker","Cornwall","50.18407","-5.26071","SW 6732 3665","SW63","TR14 9JG","IO70IE"
"B/G-0074","ROC Post The Lizard","ROC Bunker","Cornwall","49.96487","-5.19133","SW 7123 1207","SW71","TR12 7AP","IN79JX"
"B/G-0075","ROC Post Constantine","ROC Bunker","Cornwall","50.12479","-5.19272","SW 7189 2985","SW72","TR11 5QF","IO70JC"
"B/G-0076","ROC Post St. Agnes","ROC Bunker","Cornwall","50.29392","-5.19225","SW 7273 4865","SW74","TR5 0PF","IO70JH"
"B/G-0077","ROC Post Penryn Master Post","ROC Bunker","Cornwall","50.17524","-5.14048","SW 7586 3530","SW73","TR10 9DH","IO70KE"
"B/G-0078","ROC Post Truro","ROC Bunker","Cornwall","50.25285","-5.05396","SW 8239 4367","SW84","TR1 2HN","IO70LG"
"B/G-0079","ROC Post Mitchell","ROC Bunker","Cornwall","50.34340","-5.03475","SW 8417 5368","SW85","TR4 9JD","IO70LI"
"B/G-0080","ROC Post Newquay","ROC Bunker","Cornwall","50.43493","-5.02948","SW 8496 6384","SW86","TR8 4AW","IO70LK"
"B/G-0081","ROC Post St Anthony-in-Meneage","ROC Bunker","Cornwall","50.15391","-4.99823","SW 8592 3251","SW83","TR2 5EY","IO70MD"
"B/G-0082","ROC Post Veryan","ROC Bunker","Cornwall","50.19991","-4.91548","SW 9203 3739","SW93","TR2 5PQ","IO70NE"
"B/G-0083","ROC Post St. Columb Major Master Post","ROC Bunker","Cornwall","50.42393","-4.92500","SW 9233 6232","SW96","TR9 6JS","IO70MK"
"B/G-0084","ROC Post Trebetherick","ROC Bunker","Cornwall","50.58397","-4.90668","SW 9430 8000","SW98","PL27 6QY","IO70NO"
"B/G-0085","ROC Post Nanpean","ROC Bunker","Cornwall","50.35078","-4.84923","SW 9740 5399","SW95","PL26 7TR","IO70NI"
"B/G-0086","ROC Post Mevagissey","ROC Bunker","Cornwall","50.24717","-4.79702","SX 0068 4232","SX04","PL26 6NS","IO70OF"
"B/G-0087","ROC Post Tintagel","ROC Bunker","Cornwall","50.66282","-4.75996","SX 0504 8843","SX08","PL34 0DL","IO70OP"
"B/G-0088","ROC Post Bodmin","ROC Bunker","Cornwall","50.46479","-4.72403","SX 0677 6632","SX06","PL31 1BH","IO70PL"
"B/G-0089","ROC Post St. Breward Master Post","ROC Bunker","Cornwall","50.56647","-4.68794","SX 0974 7753","SX07","PL30 4PP","IO70PN"
"B/G-0090","ROC Post Par","ROC Bunker","Cornwall","50.36911","-4.66889","SX 1030 5554","SX15","PL24 2UA","IO70PI"
"B/G-0091","ROC Post Otterham","ROC Bunker","Cornwall","50.66617","-4.62273","SX 1475 8845","SX18","PL35 0HS","IO70QP"
"B/G-0092","ROC Post Polperro","ROC Bunker","Cornwall","50.36688","-4.51858","SX 2098 5492","SX25","PL13 2PQ","IO70RI"
"B/G-0093","ROC Post Week St. Mary","ROC Bunker","Cornwall","50.75790","-4.50506","SX 2341 9836","SX29","EX22 6XF","IO70RS"
"B/G-0094","ROC Post Liskeard","ROC Bunker","Cornwall","50.45589","-4.45751","SX 2565 6467","SX26","PL14 3BS","IO70SK"
"B/G-0095","ROC Post Coad's Green","ROC Bunker","Cornwall","50.56661","-4.40155","SX 3002 7685","SX37","PL15 7LU","IO70TN"
"B/G-0096","ROC Post Downderry","ROC Bunker","Cornwall","50.36800","-4.37154","SX 3144 5470","SX35","PL11 3DJ","IO70TI"
"B/G-0097","ROC Post Launceston","ROC Bunker","Cornwall","50.63239","-4.35626","SX 3346 8406","SX38","PL15 9BQ","IO70TP"
"B/G-0098","ROC Post Callington","ROC Bunker","Cornwall","50.49909","-4.30237","SX 3681 6912","SX36","PL17 7PY","IO70UL"
"B/G-0099","ROC Post Saltash","ROC Bunker","Cornwall","50.40627","-4.25621","SX 3977 5870","SX35","PL12 4QH","IO70UJ"
"B/G-0100","ROC Post Millbrook Master Post","ROC Bunker","Cornwall","50.34269","-4.20428","SX 4325 5152","SX45","PL10 1LA","IO70VI"
"B/G-0101","ROC Post Wadebridge","ROC Bunker","Cornwall","50.50952","-4.89445","SW 9487 7175","SW97","PL27 7RQ","IO70NM"
"B/G-0103","ROC Post Sacriston Master Post","ROC Bunker","County Durham","54.82618","-1.65529","NZ 2225 4798","NZ24","DH7 6TT","IO94ET"
"B/G-0104","ROC Post Stanhope","ROC Bunker","County Durham","54.76007","-2.01551","NY 9910 4057","NY94","DL13 2EW","IO84XS"
"B/G-0105","ROC Post Woodland","ROC Bunker","County Durham","54.61473","-1.92394","NZ 0501 2440","NZ02","DL13 5RU","IO94AO"
"B/G-0106","ROC Post Tow Law Master Post","ROC Bunker","County Durham","54.74075","-1.79308","NZ 1342 3844","NZ13","DL13 4NH","IO94CR"
"B/G-0107","ROC Post Tantobie","ROC Bunker","County Durham","54.88605","-1.73996","NZ 1678 5462","NZ15","DH9 9SH","IO94DV"
"B/G-0108","ROC Post Westerton","ROC Bunker","County Durham","54.67546","-1.62174","NZ 2449 3122","NZ23","DL16 7QD","IO94EQ"
"B/G-0109","ROC Post Springwell","ROC Bunker","Tyne and Wear","54.92497","-1.55590","NZ 2856 5901","NZ25","NE9 7YX","IO94FW"
"B/G-0110","ROC Post Sherburn Hill","ROC Bunker","County Durham","54.76994","-1.48455","NZ 3326 4179","NZ34","DH6 1QR","IO94GS"
"B/G-0111","ROC Post Sadberge","ROC Bunker","County Durham","54.54336","-1.47875","NZ 3382 1658","NZ31","DL2 1TW","IO94GN"
"B/G-0112","ROC Post Sedgefield","ROC Bunker","County Durham","54.66530","-1.43611","NZ 3647 3017","NZ33","TS21 3ED","IO94GP"
"B/G-0113","ROC Post Whitburn","ROC Bunker","Tyne and Wear","54.95675","-1.36645","NZ 4067 6264","NZ46","SR6 7LN","IO94HW"
"B/G-0114","ROC Post Wolviston","ROC Bunker","County Durham","54.60857","-1.30978","NZ 4468 2393","NZ42","TS22 5EB","IO94IO"
"B/G-0115","ROC Post Seaton Carew","ROC Bunker","County Durham","54.64619","-1.18615","NZ 5262 2820","NZ52","TS25 1DE","IO94JP"
"B/G-0116","ROC Post Wearhead","ROC Bunker","County Durham","54.74352","-2.22772","NY 8544 3875","NY83","DL13 1HL","IO84VR"
"B/G-0117","ROC Post Whitehaven","ROC Bunker","Cumbria","54.55497","-3.56923","NX 9861 1888","NX91","CA28 6SH","IO84FN"
"B/G-0118","ROC Post Workington","ROC Bunker","Cumbria","54.65185","-3.53514","NY 0105 2961","NY02","CA14 1DG","IO84FP"
"B/G-0119","ROC Post Seascale","ROC Bunker","Cumbria","54.40187","-3.48665","NY 0359 0173","NY00","CA20 1QN","IO84GJ"
"B/G-0120","ROC Post Allonby Master Post","ROC Bunker","Cumbria","54.77338","-3.42252","NY 0859 4298","NY04","CA15 6QB","IO84GS"
"B/G-0121","ROC Post Silloth","ROC Bunker","Cumbria","54.86577","-3.39164","NY 1078 5322","NY15","CA7 4BL","IO84HU"
"B/G-0122","ROC Post Cockermouth","ROC Bunker","Cumbria","54.68262","-3.36676","NY 1198 3281","NY13","CA13 0NY","IO84HQ"
"B/G-0123","ROC Post Kirkbride","ROC Bunker","Cumbria","54.91324","-3.20515","NY 2284 5828","NY25","CA7 5AA","IO84JV"
"B/G-0124","ROC Post Bassenthwaite","ROC Bunker","Cumbria","54.68460","-3.19728","NY 2291 3283","NY23","CA12 4RJ","IO84JQ"
"B/G-0125","ROC Post Wigton","ROC Bunker","Cumbria","54.83219","-3.16739","NY 2511 4922","NY24","CA7 9DH","IO84JT"
"B/G-0126","ROC Post Threlkeld","ROC Bunker","Cumbria","54.60991","-3.07245","NY 3083 2439","NY32","CA12 4RR","IO84LO"
"B/G-0127","ROC Post Caldbeck","ROC Bunker","Cumbria","54.74294","-3.02952","NY 3382 3915","NY33","CA7 8JJ","IO84LR"
"B/G-0128","ROC Post Dalston","ROC Bunker","Cumbria","54.82649","-2.96658","NY 3800 4839","NY34","CA5 7AG","IO84MT"
"B/G-0129","ROC Post Carlisle","ROC Bunker","Cumbria","54.92367","-2.96313","NY 3837 5920","NY35","CA6 4SQ","IO84MW"
"B/G-0130","ROC Post Greystoke","ROC Bunker","Cumbria","54.67075","-2.85883","NY 4471 3097","NY43","CA11 0UH","IO84NQ"
"B/G-0131","ROC Post Armathwaite","ROC Bunker","Cumbria","54.80856","-2.80107","NY 4861 4626","NY44","CA4 9TH","IO84OT"
"B/G-0132","ROC Post Penrith Master Post","ROC Bunker","Cumbria","54.65463","-2.77014","NY 5041 2911","NY52","CA11 0DR","IO84OP"
"B/G-0133","ROC Post Roadhead Master Post","ROC Bunker","Cumbria","55.06542","-2.75390","NY 5195 7481","NY57","CA6 6NP","IO85OB"
"B/G-0134","ROC Post Brampton","ROC Bunker","Cumbria","54.93515","-2.73491","NY 5301 6030","NY56","CA8 1QJ","IO84PW"
"B/G-0135","ROC Post Culgaith","ROC Bunker","Cumbria","54.65892","-2.59971","NY 6141 2948","NY62","CA10 1DN","IO84QP"
"B/G-0136","ROC Post Alston","ROC Bunker","Cumbria","54.80998","-2.43282","NY 7228 4621","NY74","CA9 3TQ","IO84ST"
"B/G-0137","ROC Post Bootle","ROC Bunker","Cumbria","54.29118","-3.37742","SD 1044 8927","SD18","LA19 5TJ","IO84HG"
"B/G-0138","ROC Post Eskdale","ROC Bunker","Cumbria","54.38926","-3.33321","NY 1252 0012","NY10","CA19 1TD","IO84IJ"
"B/G-0139","ROC Post Millom","ROC Bunker","Cumbria","54.20084","-3.26342","SD 1768 7908","SD17","LA18 4JY","IO84IE"
"B/G-0140","ROC Post Sedbergh","ROC Bunker","Cumbria","54.32506","-2.52134","SD 6619 9229","SD69","LA10 5AN","IO84RH"
"B/G-0141","ROC Post Glossop","ROC Bunker","Derbyshire","53.44806","-1.93522","SK 0440 9459","SK09","SK13 7TL","IO93AK"
"B/G-0142","ROC Post Buxton Master Post","ROC Bunker","Derbyshire","53.27767","-1.86994","SK 0877 7564","SK07","SK17 8AE","IO93BG"
"B/G-0143","ROC Post Uttoxeter Master Post","ROC Bunker","Derbyshire","52.92166","-1.83531","SK 1117 3604","SK13","DE6 5LN","IO92BW"
"B/G-0144","ROC Post Hartington","ROC Bunker","Derbyshire","53.13655","-1.80803","SK 1294 5995","SK15","SK17 0AT","IO93CD"
"B/G-0145","ROC Post Hope","ROC Bunker","Derbyshire","53.31351","-1.79148","SK 1399 7964","SK17","SK17 8JD","IO93CH"
"B/G-0146","ROC Post Brassington","ROC Bunker","Derbyshire","53.09380","-1.66113","SK 2279 5523","SK25","DE4 4HN","IO93EC"
"B/G-0147","ROC Post Baslow","ROC Bunker","Derbyshire","53.24682","-1.64135","SK 2403 7226","SK27","DE45 1RL","IO93EF"
"B/G-0148","ROC Post Church Gresley","ROC Bunker","Derbyshire","52.75772","-1.58758","SK 2793 1787","SK21","DE11 9ES","IO92ES"
"B/G-0149","ROC Post Hulland","ROC Bunker","Derbyshire","53.01436","-1.58470","SK 2796 4642","SK24","DE56 2LT","IO93EA"
"B/G-0150","ROC Post Etwall","ROC Bunker","Derbyshire","52.88625","-1.58146","SK 2826 3217","SK23","DE65 6HY","IO92FV"
"B/G-0151","ROC Post Ambergate Master Post","ROC Bunker","Derbyshire","53.05581","-1.47300","SK 3542 5108","SK35","DE56 2GS","IO93GB"
"B/G-0152","ROC Post Ashover Master Post","ROC Bunker","Derbyshire","53.16886","-1.46533","SK 3584 6366","SK36","S45 0BB","IO93GE"
"B/G-0153","ROC Post Melbourne","ROC Bunker","Derbyshire","52.82104","-1.45996","SK 3649 2497","SK32","DE73 7NF","IO92GT"
"B/G-0154","DELETED after 28 Feb 25, (dupe with B/G-0151)","ROC Bunker","Derbyshire","53.05033","-1.42563","SK 3856 5050","SK35","DELETED","IO93GB"
"B/G-0155","ROC Post Spondon","ROC Bunker","Derbyshire","52.93686","-1.39335","SK 4087 3789","SK43","DE21 7BW","IO92HW"
"B/G-0156","ROC Post Staveley","ROC Bunker","Derbyshire","53.27839","-1.34789","SK 4358 7591","SK47","S43 3YG","IO93HG"
"B/G-0157","ROC Post Whitwell","ROC Bunker","Derbyshire","53.28688","-1.20750","SK 5293 7695","SK57","S80 4SS","IO93JG"
"B/G-0160","ROC Post Holsworthy","ROC Bunker","Devon","50.81073","-4.34350","SS 3499 0386","SS30","EX22 6JN","IO70TT"
"B/G-0161","ROC Post Horns Cross","ROC Bunker","Devon","50.98890","-4.31627","SS 3753 2361","SS32","EX39 5EA","IO70UX"
"B/G-0162","ROC Post Woolacombe","ROC Bunker","Devon","51.16270","-4.16864","SS 4846 4262","SS44","EX34 7HN","IO71VD"
"B/G-0163","ROC Post Great Torrington","ROC Bunker","Devon","50.99703","-4.09535","SS 5306 2405","SS52","EX31 3PS","IO70WX"
"B/G-0165","ROC Post Hatherleigh","ROC Bunker","Devon","50.84523","-4.06936","SS 5441 0712","SS50","EX20 3QB","IO70XU"
"B/G-0166","ROC Post Shirwell","ROC Bunker","Devon","51.14421","-4.05225","SS 5654 4033","SS54","EX31 4HS","IO71XD"
"B/G-0167","ROC Post High Bickington","ROC Bunker","Devon","50.96514","-3.99080","SS 6030 2030","SS62","EX37 9EJ","IO80AX"
"B/G-0168","ROC Post Winkleigh Master Post","ROC Bunker","Devon","50.86786","-3.96249","SS 6200 0943","SS60","EX19 8EZ","IO80AU"
"B/G-0169","ROC Post South Molton","ROC Bunker","Devon","51.00580","-3.83631","SS 7126 2454","SS72","EX36 4LB","IO81BA"
"B/G-0170","ROC Post Witheridge","ROC Bunker","Devon","50.88827","-3.75391","SS 7673 1133","SS71","EX17 4TH","IO80CV"
"B/G-0171","ROC Post Stockleigh Pomeroy Master Post","ROC Bunker","Devon","50.81696","-3.58372","SS 8853 0313","SS80","EX17 1BE","IO80ET"
"B/G-0172","ROC Post Tiverton","ROC Bunker","Devon","50.89410","-3.52449","SS 9288 1162","SS91","EX16 8JR","IO80FV"
"B/G-0173","ROC Post Kentisbeare","ROC Bunker","Devon","50.85472","-3.34788","ST 0522 0700","ST00","EX15 2BU","IO80HU"
"B/G-0174","ROC Post Feniton","ROC Bunker","Somerset","51.15581","-3.28257","ST 1040 4040","ST14","TA4 4ED","IO81ID"
"B/G-0175","ROC Post Tavistock","ROC Bunker","Devon","50.57495","-4.15466","SX 4753 7724","SX47","PL19 0JN","IO70WN"
"B/G-0176","ROC Post Sharpitor","ROC Bunker","Devon","50.51222","-4.03727","SX 5565 7003","SX57","PL20 6PE","IO70XM"
"B/G-0177","ROC Post Holbeton","ROC Bunker","Devon","50.32282","-3.96313","SX 6035 4883","SX64","PL8 1JQ","IO80AH"
"B/G-0178","ROC Post Gara Bridge","ROC Bunker","Devon","50.36610","-3.74133","SX 7625 5325","SX75","TQ9 7JL","IO80DI"
"B/G-0179","ROC Post Start Point","ROC Bunker","Devon","50.22920","-3.66273","SX 8150 3790","SX83","TQ7 2ET","IO80EF"
"B/G-0180","ROC Post Strete","ROC Bunker","Devon","50.31079","-3.63622","SX 8359 4693","SX84","TQ6 0SF","IO80EH"
"B/G-0181","ROC Post Torquay","ROC Bunker","Devon","50.51819","-3.51632","SX 9260 6981","SX96","TQ1 4FX","IO80FM"
"B/G-0182","ROC Post Teignmouth","ROC Bunker","Devon","50.56604","-3.52969","SX 9176 7515","SX97","TQ14 9NY","IO80FN"
"B/G-0183","ROC Post Farway Common","ROC Bunker","Devon","50.78194","-3.17585","SY 1720 9870","SY19","EX14 9TU","IO80JS"
"B/G-0184","ROC Post Seaton","ROC Bunker","Devon","50.71500","-3.08664","SY 2338 9116","SY29","EX12 2TH","IO80KR"
"B/G-0188","ROC Post Croyde","ROC Bunker","Devon","51.12260","-4.23507","SS 4368 3830","SS43","EX33 1QE","IO71VC"
"B/G-0189","ROC Post Barnstaple","ROC Bunker","Devon","51.04794","-4.02388","SS 5823 2957","SS52","EX32 0BU","IO71XB"
"B/G-0190","ROC Post Combe Martin","ROC Bunker","Devon","51.18412","-3.96445","SS 6280 4460","SS64","EX31 4PJ","IO81AE"
"B/G-0191","ROC Post Lynton Master Post","ROC Bunker","Devon","51.21884","-3.82488","SS 7265 4821","SS74","EX35 6LD","IO81CF"
"B/G-0192","ROC Post Bow","ROC Bunker","Devon","50.81053","-3.79741","SS 7346 0276","SS70","EX17 6ED","IO80CT"
"B/G-0193","ROC Post Bampton","ROC Bunker","Devon","50.95901","-3.46268","SS 9737 1875","SS91","EX16 7RZ","IO80GX"
"B/G-0194","ROC Post Axminster","ROC Bunker","Devon","50.79643","-3.01176","ST 2879 0014","ST20","EX13 7JG","IO80LT"
"B/G-0195","ROC Post Bere Alston","ROC Bunker","Devon","50.46640","-4.17847","SX 4549 6522","SX46","PL20 7JE","IO70VL"
"B/G-0196","ROC Post Plymstock","ROC Bunker","Devon","50.34677","-4.11044","SX 4994 5178","SX45","PL9 9SP","IO70WI"
"B/G-0197","ROC Post Lydford","ROC Bunker","Devon","50.65115","-4.08458","SX 5273 8557","SX58","EX20 4BA","IO70WP"
"B/G-0198","ROC Post Plympton","ROC Bunker","Devon","50.40176","-4.06855","SX 5309 5781","SX55","PL7 4QG","IO70XJ"
"B/G-0199","ROC Post Okehampton","ROC Bunker","Devon","50.72703","-4.07094","SX 5393 9398","SX59","EX20 4ND","IO70XR"
"B/G-0200","ROC Post Modbury Master Post","ROC Bunker","Devon","50.37709","-3.86255","SX 6766 5468","SX65","PL21 0HL","IO80BJ"
"B/G-0201","ROC Post Malborough","ROC Bunker","Devon","50.25214","-3.81222","SX 7090 4070","SX74","TQ7 3EG","IO80CG"
"B/G-0202","ROC Post Drewsteignton","ROC Bunker","Devon","50.70353","-3.82518","SX 7121 9091","SX79","EX6 6PE","IO80CQ"
"B/G-0203","ROC Post Moretonhampstead","ROC Bunker","Devon","50.64691","-3.78183","SX 7412 8454","SX78","TQ13 8RD","IO80CP"
"B/G-0204","ROC Post Ashburton","ROC Bunker","Devon","50.50084","-3.75870","SX 7537 6826","SX76","TQ13 7NG","IO80CM"
"B/G-0205","ROC Post Manaton","ROC Bunker","Devon","50.59041","-3.74748","SX 7640 7820","SX77","TQ13 9XJ","IO80DO"
"B/G-0206","ROC Post Christow","ROC Bunker","Devon","50.63463","-3.65692","SX 8292 8297","SX88","EX6 7RH","IO80EP"
"B/G-0207","ROC Post Newton Abbot","ROC Bunker","Devon","50.51032","-3.63253","SX 8434 6911","SX86","TQ12 6BZ","IO80EM"
"B/G-0208","ROC Post Paignton","ROC Bunker","Devon","50.43649","-3.62549","SX 8466 6089","SX86","TQ3 3YG","IO80EK"
"B/G-0209","ROC Post Exminster","ROC Bunker","Devon","50.64816","-3.54310","SX 9100 8430","SX98","EX6 7XU","IO80FP"
"B/G-0210","ROC Post Brixham","ROC Bunker","Devon","50.39914","-3.48632","SX 9446 5653","SX95","TQ5 9AP","IO80GJ"
"B/G-0211","ROC Post Pinhoe Master Post","ROC Bunker","Devon","50.73027","-3.42281","SX 9968 9326","SX99","EX5 2BD","IO80GR"
"B/G-0212","ROC Post Exmouth","ROC Bunker","Devon","50.62356","-3.35144","SY 0450 8130","SY08","EX9 7AN","IO80HO"
"B/G-0213","ROC Post Yetminster Master Post","ROC Bunker","Dorset","50.89034","-2.57035","ST 5998 1025","ST51","DT9 6NL","IO80RV"
"B/G-0214","ROC Post Evershot","ROC Bunker","Dorset","50.82251","-2.55646","ST 6090 0270","ST60","DT2 9PW","IO80RT"
"B/G-0215","ROC Post Buckland Newton Master Post","ROC Bunker","Dorset","50.84354","-2.45587","ST 6800 0499","ST60","DT2 7BT","IO80SU"
"B/G-0216","ROC Post East Stour","ROC Bunker","Dorset","51.01159","-2.32709","ST 7715 2363","ST72","SP8 5EE","IO81UA"
"B/G-0217","ROC Post Sturminster Newton","ROC Bunker","Dorset","50.91401","-2.29923","ST 7906 1277","ST71","DT10 2HJ","IO80UV"
"B/G-0218","ROC Post Fontmell Magna","ROC Bunker","Dorset","50.96225","-2.19531","ST 8638 1811","ST81","SP7 0JH","IO80VX"
"B/G-0219","ROC Post Blandford Forum","ROC Bunker","Dorset","50.84663","-2.18233","ST 8726 0525","ST80","DT11 0DS","IO80VU"
"B/G-0220","ROC Post Sixpenny Handley","ROC Bunker","Dorset","50.95684","-2.00721","ST 9959 1749","ST91","SP5 5SA","IO80XW"
"B/G-0221","ROC Post Witchampton","ROC Bunker","Dorset","50.85037","-1.99526","SU 0043 0565","SU00","BH21 5AA","IO90AU"
"B/G-0222","ROC Post Verwood","ROC Bunker","Dorset","50.88699","-1.87214","SU 0909 0973","SU00","BH31 7PQ","IO90BV"
"B/G-0223","ROC Post Burton Bradstock","ROC Bunker","Dorset","50.71368","-2.73817","SY 4798 9071","SY49","DT6 4PS","IO80PR"
"B/G-0224","ROC Post Abbotsbury","ROC Bunker","Dorset","50.67415","-2.62377","SY 5602 8624","SY58","DT3 4JY","IO80QQ"
"B/G-0225","ROC Post Dorchester","ROC Bunker","Dorset","50.71846","-2.45394","SY 6805 9108","SY69","DT1 2PW","IO80SR"
"B/G-0226","ROC Post Portland Bill","ROC Bunker","Dorset","50.53960","-2.45180","SY 6808 7119","SY67","DT5 2AQ","IO80SM"
"B/G-0227","ROC Post Preston","ROC Bunker","Dorset","50.63606","-2.41342","SY 7086 8190","SY78","DT3 6PR","IO80TP"
"B/G-0228","ROC Post West Lulworth","ROC Bunker","Dorset","50.61897","-2.25721","SY 8190 7995","SY87","BH20 5RS","IO80UO"
"B/G-0229","ROC Post Bere Regis","ROC Bunker","Dorset","50.75172","-2.20379","SY 8572 9470","SY89","BH20 7JL","IO80VS"
"B/G-0230","ROC Post Wareham","ROC Bunker","Dorset","50.67641","-2.10043","SY 9300 8631","SY98","BH20 5BD","IO80WQ"
"B/G-0231","ROC Post Worth Matravers","ROC Bunker","Dorset","50.60505","-2.02355","SY 9843 7837","SY97","BH19 3LB","IO80XO"
"B/G-0232","ROC Post Canford Cliffs","ROC Bunker","Dorset","50.70080","-1.92182","SZ 0560 8900","SZ08","BH13 7JE","IO90AQ"
"B/G-0233","ROC Post Castleside","ROC Bunker","County Durham","54.83009","-1.86765","NZ 0860 4837","NZ04","DH8 9AD","IO94BT"
"B/G-0234","ROC Post Pit House","ROC Bunker","County Durham","54.75365","-1.68922","NZ 2010 3990","NZ23","DL15 9AS","IO94DS"
"B/G-0235","ROC Post Brusselton","ROC Bunker","County Durham","54.61956","-1.68607","NZ 2037 2498","NZ22","DL4 1QF","IO94DO"
"B/G-0236","ROC Post Piercebridge","ROC Bunker","County Durham","54.53200","-1.64115","NZ 2332 1525","NZ21","DL2 2LQ","IO94EM"
"B/G-0237","ROC Post Aycliffe Village","ROC Bunker","County Durham","54.58427","-1.55126","NZ 2910 2110","NZ22","DL1 3LB","IO94FO"
"B/G-0238","ROC Post Hastings Hill","ROC Bunker","Tyne and Wear","54.88329","-1.45146","NZ 3529 5442","NZ35","SR4 9LB","IO94GV"
"B/G-0239","ROC Post Easington","ROC Bunker","County Durham","54.81458","-1.33288","NZ 4297 4684","NZ44","SR7 8SW","IO94IT"
"B/G-0240","ROC Post Hartlepool","ROC Bunker","County Durham","54.69582","-1.24857","NZ 4853 3368","NZ43","TS26 0FT","IO94JQ"
"B/G-0242","ROC Post Nazeing","ROC Bunker","Essex","51.73664","0.05866","TL 4225 0622","TL40","EN9 2DE","JO01AR"
"B/G-0243","ROC Post Ickleton","ROC Bunker","Essex","52.05260","0.15104","TL 4759 4154","TL44","CB11 4LU","JO02BB"
"B/G-0244","ROC Post Hatfield Broad Oak","ROC Bunker","Essex","51.81846","0.23680","TL 5427 1568","TL51","CM22 7LQ","JO01CT"
"B/G-0245","ROC Post Henham","ROC Bunker","Essex","51.92998","0.25020","TL 5481 2811","TL52","CM22 6BS","JO01DW"
"B/G-0246","ROC Post Chipping Ongar Master Post","ROC Bunker","Essex","51.72904","0.25715","TL 5598 0578","TL50","CM5 0HN","JO01DR"
"B/G-0247","ROC Post Good Easter","ROC Bunker","Essex","51.78026","0.36003","TL 6290 1170","TL61","CM1 4RX","JO01ES"
"B/G-0248","ROC Post Great Dunmow","ROC Bunker","Essex","51.89432","0.38969","TL 6453 2445","TL62","CM6 3BJ","JO01EV"
"B/G-0249","ROC Post Finchingfield","ROC Bunker","Essex","51.96718","0.46680","TL 6956 3273","TL63","CM7 4NS","JO01FX"
"B/G-0250","ROC Post Little Waltham","ROC Bunker","Essex","51.79293","0.47845","TL 7102 1338","TL71","CM3 3LA","JO01FT"
"B/G-0251","ROC Post Great Baddow","ROC Bunker","Essex","51.72140","0.51797","TL 7402 0552","TL70","CM2 7AG","JO01GR"
"B/G-0252","ROC Post Clare","ROC Bunker","Essex","52.06473","0.58145","TL 7705 4385","TL74","CO10 8LF","JO02GB"
"B/G-0253","ROC Post Braintree","ROC Bunker","Essex","51.88383","0.59578","TL 7875 2377","TL72","CM77 8AF","JO01HV"
"B/G-0254","ROC Post Castle Hedingham","ROC Bunker","Essex","51.98949","0.60451","TL 7893 3554","TL73","CO9 3HL","JO01HX"
"B/G-0255","ROC Post Hatfield Peverel","ROC Bunker","Essex","51.78244","0.60982","TL 8012 1253","TL81","CM3 2EF","JO01HS"
"B/G-0256","ROC Post Maldon","ROC Bunker","Essex","51.73249","0.65937","TL 8374 0710","TL80","CM9 6LJ","JO01HR"
"B/G-0257","ROC Post Wickham Bishops","ROC Bunker","Essex","51.78140","0.68805","TL 8552 1261","TL81","CM9 8BX","JO01IS"
"B/G-0258","ROC Post Kelvedon","ROC Bunker","Essex","51.83993","0.69241","TL 8558 1913","TL81","CO5 9JR","JO01IU"
"B/G-0259","ROC Post Earls Colne","ROC Bunker","Essex","51.92254","0.69793","TL 8562 2833","TL82","CO6 2PD","JO01IW"
"B/G-0260","ROC Post Latchingdon","ROC Bunker","Essex","51.67576","0.72143","TL 8826 0095","TL80","CM3 6LE","JO01IQ"
"B/G-0261","ROC Post Tolleshunt d'Arcy","ROC Bunker","Essex","51.76906","0.78502","TL 9226 1149","TL91","CM9 8EJ","JO01JS"
"B/G-0262","ROC Post Lexden","ROC Bunker","Essex","51.86688","0.86123","TL 9709 2257","TL92","CO2 9JN","JO01KU"
"B/G-0263","ROC Post Langham Master Post","ROC Bunker","Essex","51.93675","0.92023","TM 0084 3050","TM03","CO4 5HX","JO01LW"
"B/G-0264","ROC Post Bradwell-on-Sea","ROC Bunker","Essex","51.72851","0.91099","TM 0113 0732","TM00","CM0 7PU","JO01KR"
"B/G-0265","ROC Post West Mersea","ROC Bunker","Essex","51.77364","0.92955","TM 0221 1239","TM01","CO5 8BP","JO01LS"
"B/G-0266","ROC Post Brightlingsea","ROC Bunker","Essex","51.82884","0.99482","TM 0646 1871","TM01","CO7 0SB","JO01LT"
"B/G-0267","ROC Post Manningtree","ROC Bunker","Essex","51.94382","1.05618","TM 1015 3167","TM13","CO11 2HT","JO01MW"
"B/G-0268","ROC Post Tendring","ROC Bunker","Essex","51.87909","1.11355","TM 1440 2464","TM12","CO16 0BP","JO01NV"
"B/G-0269","ROC Post Clacton","ROC Bunker","Essex","51.77733","1.13176","TM 1614 1338","TM11","CO15 1XT","JO01NS"
"B/G-0270","ROC Post Walton-on-the-Naze","ROC Bunker","Essex","51.84461","1.26698","TM 2513 2127","TM22","CO14 8ET","JO01PU"
"B/G-0271","ROC Post Chigwell","ROC Bunker","Essex","51.63352","0.07263","TQ 4354 9478","TQ49","IG7 6FB","JO01AP"
"B/G-0272","ROC Post Harold Wood","ROC Bunker","Greater London","51.61240","0.20080","TQ 5248 9269","TQ59","RM4 1QJ","JO01CO"
"B/G-0273","ROC Post Rainham - Essex","ROC Bunker","Greater London","51.52448","0.23202","TQ 5494 8298","TQ58","RM13 9GS","JO01CM"
"B/G-0274","ROC Post Orsett","ROC Bunker","Essex","51.50537","0.36741","TQ 6440 8115","TQ68","RM16 3BA","JO01EM"
"B/G-0275","ROC Post Billericay","ROC Bunker","Essex","51.59762","0.40830","TQ 6690 9150","TQ61","CM12 9TR","JO01EO"
"B/G-0276","ROC Post Vange","ROC Bunker","Essex","51.55898","0.47609","TQ 7174 8736","TQ78","SS16 4QU","JO01FN"
"B/G-0277","ROC Post Canvey Island","ROC Bunker","Essex","51.52377","0.55376","TQ 7726 8363","TQ78","SS8 0PU","JO01GM"
"B/G-0278","ROC Post Woodham Ferrers","ROC Bunker","Essex","51.65948","0.59841","TQ 7982 9883","TQ79","CM3 8RE","JO01HP"
"B/G-0279","ROC Post Leigh-on-Sea","ROC Bunker","Essex","51.55455","0.64565","TQ 8351 8728","TQ88","SS9 3AG","JO01HN"
"B/G-0280","ROC Post Rochford","ROC Bunker","Essex","51.60858","0.70975","TQ 8773 9345","TQ89","SS4 3RR","JO01IO"
"B/G-0281","ROC Post Great Wakering","ROC Bunker","Essex","51.56084","0.81989","TQ 9556 8843","TQ98","SS3 0BT","JO01JN"
"B/G-0282","ROC Post Southminster","ROC Bunker","Essex","51.65755","0.83731","TQ 9635 9923","TQ99","CM0 7JP","JO01KP"
"B/G-0283","ROC Post Foulness","ROC Bunker","Essex","51.59953","0.89291","TR 0045 9293","TR09","SS3 9XQ","JO01KO"
"B/G-0284","ROC Post St. Briavels","ROC Bunker","Gloucestershire","51.73252","-2.63881","SO 5598 0395","SO50","GL15 6UG","IO81QR"
"B/G-0285","ROC Post Blakeney","ROC Bunker","Gloucestershire","51.75206","-2.48249","SO 6679 0604","SO60","GL15 4AR","IO81SS"
"B/G-0286","ROC Post Westbury-on-Severn","ROC Bunker","Gloucestershire","51.82864","-2.39247","SO 7305 1452","SO71","GL14 1QD","IO81TT"
"B/G-0287","ROC Post Tirley","ROC Bunker","Gloucestershire","51.94924","-2.28949","SO 8020 2790","SO82","GL19 3RJ","IO81UW"
"B/G-0288","ROC Post Stroud","ROC Bunker","Guernsey","51.77626","-2.24737","SO 8303 0865","SO80","GL6 6PP","IO81VS"
"B/G-0289","ROC Post Barnwood","ROC Bunker","Gloucestershire","51.83284","-2.18281","SO 8750 1493","SO81","GL4 8EB","IO81VT"
"B/G-0290","ROC Post Stoke Orchard","ROC Bunker","Gloucestershire","51.94793","-2.09802","SO 9336 2772","SO92","GL52 7AA","IO81WW"
"B/G-0291","ROC Post North Cerney","ROC Bunker","Gloucestershire","51.77265","-1.95807","SP 0299 0822","SP00","GL7 7FB","IO91AS"
"B/G-0292","ROC Post Andoversford","ROC Bunker","Gloucestershire","51.89608","-1.93020","SP 0490 2195","SP02","GL54 5ST","IO91AV"
"B/G-0293","ROC Post Northleach","ROC Bunker","Gloucestershire","51.83056","-1.86152","SP 0964 1467","SP01","GL54 3QG","IO91BT"
"B/G-0294","ROC Post Poulton","ROC Bunker","Gloucestershire","51.71682","-1.85593","SP 1005 0202","SP10","GL7 5SR","IO91BR"
"B/G-0295","ROC Post Stow-on-the-Wold","ROC Bunker","Gloucestershire","51.93758","-1.72242","SP 1918 2660","SP12","GL54 1FF","IO91DW"
"B/G-0296","ROC Post Hallen","ROC Bunker","Gloucestershire","51.51749","-2.64704","ST 5520 8004","ST58","BS10 7RR","IO81QM"
"B/G-0297","ROC Post Hill","ROC Bunker","Gloucestershire","51.65535","-2.51746","ST 6430 9530","ST69","GL13 9EA","IO81RP"
"B/G-0298","ROC Post Thornbury","ROC Bunker","Gloucestershire","51.59819","-2.51132","ST 6468 8894","ST68","BS35 3TR","IO81RO"
"B/G-0299","ROC Post Dursley","ROC Bunker","Gloucestershire","51.69451","-2.38769","ST 7330 9960","ST79","GL11 6PT","IO81TQ"
"B/G-0300","ROC Post Little Sodbury Master Post","ROC Bunker","Gloucestershire","51.55305","-2.33817","ST 7665 8385","ST78","BS37 6QU","IO81TN"
"B/G-0301","ROC Post Marshfield","ROC Bunker","Gloucestershire","51.45498","-2.32866","ST 7726 7294","ST77","SN14 8BB","IO81UK"
"B/G-0302","ROC Post Leighterton","ROC Bunker","Wiltshire","51.60291","-2.24772","ST 8294 8937","ST88","GL8 8QY","IO81VO"
"B/G-0303","ROC Post Shaw","ROC Bunker","Greater Manchester","53.59003","-2.11644","SD 9239 1039","SD91","OL2 7PA","IO83WO"
"B/G-0304","ROC Post Fordingbridge Master Post","ROC Bunker","Hampshire","50.92656","-1.76333","SU 1673 1415","SU11","SP6 2JJ","IO90CW"
"B/G-0305","ROC Post Ringwood","ROC Bunker","Hampshire","50.81917","-1.75337","SU 1747 0221","SU10","BH24 3BZ","IO90CT"
"B/G-0306","ROC Post Grateley","ROC Bunker","Hampshire","51.16609","-1.61766","SU 2683 4083","SU24","SP11 7EF","IO91ED"
"B/G-0307","ROC Post Lyndhurst","ROC Bunker","Hampshire","50.87834","-1.59102","SU 2887 0884","SU20","SO43 7FJ","IO90EV"
"B/G-0308","ROC Post Lockerley","ROC Bunker","Hampshire","51.02299","-1.55553","SU 3127 2494","SU32","SO51 0GR","IO91FA"
"B/G-0309","ROC Post Copythorne","ROC Bunker","Hampshire","50.95510","-1.53297","SU 3290 1740","SU31","SO51 6GF","IO90FW"
"B/G-0310","ROC Post Hurstbourne Tarrant","ROC Bunker","Hampshire","51.27105","-1.46341","SU 3753 5257","SU35","SP11 0DH","IO91GG"
"B/G-0311","ROC Post Stockbridge Master Post","ROC Bunker","Hampshire","51.11555","-1.45664","SU 3813 3528","SU33","SO20 6BY","IO91GC"
"B/G-0312","ROC Post Marchwood","ROC Bunker","Hampshire","50.87593","-1.44394","SU 3922 0864","SU30","SO45 5TE","IO90GV"
"B/G-0313","ROC Post Chandlers Ford","ROC Bunker","Hampshire","50.97443","-1.41314","SU 4130 1961","SU41","SO53 4LE","IO90HX"
"B/G-0314","ROC Post Longparish","ROC Bunker","Hampshire","51.18871","-1.37765","SU 4359 4346","SU44","SP11 6PJ","IO91HE"
"B/G-0315","ROC Post Kings Worthy","ROC Bunker","Hampshire","51.09967","-1.29516","SU 4945 3361","SU43","SO23 7NR","IO91IC"
"B/G-0316","ROC Post Botley Master Post","ROC Bunker","Hampshire","50.90255","-1.29373","SU 4976 1169","SU41","SO30 2SZ","IO90IV"
"B/G-0317","ROC Post Overton - Hampshire","ROC Bunker","Hampshire","51.24474","-1.25541","SU 5207 4977","SU54","RG25 3BT","IO91IF"
"B/G-0318","ROC Post Hill Head","ROC Bunker","Hampshire","50.82262","-1.25277","SU 5273 0283","SU50","PO14 4HW","IO90IT"
"B/G-0319","ROC Post Kingsclere","ROC Bunker","Hampshire","51.32217","-1.24382","SU 5279 5839","SU55","RG20 5NL","IO91JH"
"B/G-0320","ROC Post Upham","ROC Bunker","Hampshire","50.98595","-1.22950","SU 5418 2101","SU52","SO32 1JN","IO90JX"
"B/G-0321","ROC Post Cheriton","ROC Bunker","Hampshire","51.04922","-1.17124","SU 5819 2809","SU52","SO24 0QQ","IO91JB"
"B/G-0322","ROC Post Hambledon","ROC Bunker","Hampshire","50.92828","-1.07692","SU 6497 1472","SU61","PO7 4SE","IO90LW"
"B/G-0323","ROC Post Medstead","ROC Bunker","Hampshire","51.12395","-1.05302","SU 6637 3650","SU63","GU34 5LG","IO91LC"
"B/G-0324","ROC Post Herriard","ROC Bunker","Hampshire","51.19613","-1.03894","SU 6725 4454","SU64","RG25 2PT","IO91LE"
"B/G-0325","ROC Post Havant","ROC Bunker","Hampshire","50.85387","-1.02767","SU 6854 0649","SU60","PO6 1BW","IO90LU"
"B/G-0326","ROC Post Stratfield Turgis Master Post","ROC Bunker","Hampshire","51.32596","-0.99433","SU 7017 5902","SU75","RG27 0AL","IO91MH"
"B/G-0327","ROC Post Froxfield Green (Stoner Hill)","ROC Bunker","Hampshire","51.02697","-0.96388","SU 7276 2580","SU72","GU32 1DX","IO91MA"
"B/G-0328","ROC Post Hayling Island","ROC Bunker","Hampshire","50.80025","-0.96152","SU 7328 0059","SU70","PO11 0PB","IO90MT"
"B/G-0329","ROC Post Odiham","ROC Bunker","Hampshire","51.23624","-0.93569","SU 7440 4910","SU74","RG29 1JH","IO91MF"
"B/G-0330","ROC Post Selbourne","ROC Bunker","Hampshire","51.09586","-0.93420","SU 7473 3349","SU73","GU34 3LQ","IO91MC"
"B/G-0331","ROC Post Bordon","ROC Bunker","Hampshire","51.09899","-0.86529","SU 7955 3391","SU73","GU35 9BB","IO91NC"
"B/G-0332","ROC Post Christchurch","ROC Bunker","Hampshire","50.75577","-1.79722","SZ 1440 9515","SZ19","BH23 2RS","IO90CS"
"B/G-0333","ROC Post New Milton","ROC Bunker","Hampshire","50.73669","-1.67105","SZ 2331 9306","SZ29","BH25 7QL","IO90DR"
"B/G-0334","ROC Post Sway","ROC Bunker","Hampshire","50.78192","-1.58505","SZ 2935 9812","SZ29","SO41 6BW","IO90ES"
"B/G-0335","ROC Post Freshwater Master Post","ROC Bunker","Isle of Wight","50.67035","-1.50227","SZ 3527 8575","SZ38","PO40 9TZ","IO90FQ"
"B/G-0336","ROC Post Stone Point","ROC Bunker","Hampshire","50.78446","-1.35395","SZ 4564 9852","SZ49","SO45 1AD","IO90HS"
"B/G-0337","ROC Post Newport 1 - Hampshire","ROC Bunker","Isle of Wight","50.68775","-1.29922","SZ 4960 8780","SZ48","PO30 1YR","IO90IQ"
"B/G-0338","ROC Post Niton IOW","ROC Bunker","Isle of Wight","50.58262","-1.28454","SZ 5075 7612","SZ57","PO38 2LX","IO90IN"
"B/G-0339","ROC Post Newport 2 - Hampshire","ROC Bunker","Isle of Wight","50.69924","-1.26748","SZ 5183 8910","SZ58","PO30 2NQ","IO90IQ"
"B/G-0340","ROC Post Seaview","ROC Bunker","Isle of Wight","50.72581","-1.12935","SZ 6155 9216","SZ69","PO34 5AR","IO90KR"
"B/G-0341","ROC Post Sandown - IOW","ROC Bunker","Isle of Wight","50.66394","-1.12951","SZ 6162 8528","SZ68","PO36 8QP","IO90KP"
"B/G-0342","ROC Post Southsea","ROC Bunker","Hampshire","50.78848","-1.10421","SZ 6324 9915","SZ69","PO1 2NJ","IO90KS"
"B/G-0343","ROC Post Wigmore","ROC Bunker","Herefordshire","52.32053","-2.83930","SO 4289 6949","SO46","SY8 2HP","IO82NH"
"B/G-0344","ROC Post Whitchurch - Herefordshire","ROC Bunker","Herefordshire","51.85888","-2.66601","SO 5423 1802","SO51","HR9 6DH","IO81QU"
"B/G-0345","ROC Post Pencombe Master Post","ROC Bunker","Herefordshire","52.17519","-2.56017","SO 6179 5314","SO65","HR7 4SE","IO82RE"
"B/G-0346","ROC Post Trumpet Master Post","ROC Bunker","Herefordshire","52.03228","-2.46772","SO 6801 3720","SO63","HR8 2JY","IO82SA"
"B/G-0347","ROC Post Lyonshall","ROC Bunker","Herefordshire","52.20150","-2.98879","SO 3252 5638","SO35","HR5 3LN","IO82ME"
"B/G-0348","ROC Post Peterchurch Master Post","ROC Bunker","Herefordshire","52.04876","-2.93161","SO 3621 3934","SO33","HR2 0ST","IO82MB"
"B/G-0349","ROC Post Pontrilas","ROC Bunker","Herefordshire","51.93740","-2.89206","SO 3877 2692","SO32","HR2 0DL","IO81NW"
"B/G-0350","ROC Post Burghill Master Post","ROC Bunker","Herefordshire","52.10199","-2.75562","SO 4834 4512","SO44","HR4 8NG","IO82OC"
"B/G-0351","ROC Post Leominster Master Post","ROC Bunker","Herefordshire","52.21554","-2.71203","SO 5145 5772","SO55","HR6 0NA","IO82PF"
"B/G-0352","ROC Post Harewood End","ROC Bunker","Herefordshire","51.94291","-2.68748","SO 5284 2738","SO52","HR2 8JT","IO81PW"
"B/G-0353","ROC Post Fownhope","ROC Bunker","Herefordshire","52.00311","-2.59546","SO 5922 3402","SO53","HR1 4PZ","IO82QA"
"B/G-0354","ROC Post Lea","ROC Bunker","Herefordshire","51.89584","-2.47836","SO 6718 2203","SO62","HR9 7LN","IO81SV"
"B/G-0355","ROC Post Ridgway Cross","ROC Bunker","Herefordshire","52.12331","-2.40747","SO 7220 4730","SO74","WR13 5JG","IO82TC"
"B/G-0356","ROC Post Berkhamstead","ROC Bunker","Hertfordshire","51.77195","-0.56936","SP 9881 0911","SP90","HP4 1DU","IO91RS"
"B/G-0357","ROC Post Markyate","ROC Bunker","Hertfordshire","51.82920","-0.46698","TL 0574 1562","TL01","AL3 8RN","IO91ST"
"B/G-0358","ROC Post Kings Langley Master Post","ROC Bunker","Hertfordshire","51.70546","-0.45915","TL 0657 0187","TL00","WD4 8QN","IO91SQ"
"B/G-0359","ROC Post Great Offley Master Post","ROC Bunker","Hertfordshire","51.93092","-0.34948","TL 1358 2711","TL12","SG5 3DR","IO91TW"
"B/G-0361","ROC Post Park Street Master Post","ROC Bunker","Hertfordshire","51.72466","-0.33079","TL 1539 0420","TL10","AL2 2PQ","IO91UR"
"B/G-0362","ROC Post Kimpton","ROC Bunker","Hertfordshire","51.84684","-0.28592","TL 1817 1786","TL11","SG4 8RG","IO91UU"
"B/G-0363","ROC Post Letchworth","ROC Bunker","Hertfordshire","51.97942","-0.25203","TL 2015 3266","TL23","SG6 4LG","IO91UX"
"B/G-0364","ROC Post Welwyn","ROC Bunker","Hertfordshire","51.78618","-0.25183","TL 2068 1117","TL21","AL10 9BA","IO91US"
"B/G-0365","ROC Post Ashwell","ROC Bunker","Hertfordshire","52.03282","-0.15096","TL 2694 3877","TL23","SG7 5FJ","IO92WA"
"B/G-0366","ROC Post Hertford","ROC Bunker","Hertfordshire","51.81499","-0.12536","TL 2932 1459","TL21","SG14 2ND","IO91WT"
"B/G-0367","ROC Post Walkern","ROC Bunker","Hertfordshire","51.91704","-0.10817","TL 3021 2597","TL32","SG2 7JG","IO91WW"
"B/G-0368","ROC Post Brent Pelham","ROC Bunker","Hertfordshire","51.96444","0.07287","TL 4251 3158","TL43","SG9 0AS","JO01AX"
"B/G-0369","ROC Post Much Hadham","ROC Bunker","Hertfordshire","51.85967","0.08374","TL 4359 1995","TL41","SG10 6HP","JO01BU"
"B/G-0370","ROC Post Chorleywood","ROC Bunker","Hertfordshire","51.64057","-0.51063","TQ 0316 9458","TQ09","WD3 5HB","IO91RP"
"B/G-0371","ROC Post Elstree","ROC Bunker","Hertfordshire","51.64043","-0.29516","TQ 1807 9489","TQ19","WD6 3RY","IO91UP"
"B/G-0372","ROC Post Sawtry","ROC Bunker","Cambridgeshire","52.43883","-0.29761","TL 1582 8368","TL18","PE28 5BT","IO92UK"
"B/G-0374","ROC Post Abbots Ripton","ROC Bunker","Cambridgeshire","52.38079","-0.25165","TL 1910 7730","TL17","PE28 4EW","IO92UJ"
"B/G-0375","ROC Post Buckden","ROC Bunker","Cambridgeshire","52.30243","-0.24183","TL 1998 6860","TL16","PE19 5UH","IO92VH"
"B/G-0376","ROC Post Ramsey - Cambridgeshire Master Post","ROC Bunker","Cambridgeshire","52.44730","-0.12673","TL 2741 8491","TL28","PE26 1FF","IO92WK"
"B/G-0377","ROC Post St. Ives - Huntingdonshire","ROC Bunker","Cambridgeshire","52.30270","-0.12551","TL 2791 6883","TL26","PE28 9HH","IO92WH"
"B/G-0378","ROC Post Eltham","ROC Bunker","Greater London","51.42750","0.07279","TQ 4420 7187","TQ47","BR7 6LA","JO01AK"
"B/G-0379","ROC Post Edenbridge","ROC Bunker","Kent","51.19792","0.08723","TQ 4593 4637","TQ44","TN8 6LX","JO01BE"
"B/G-0380","ROC Post Brasted","ROC Bunker","Kent","51.28994","0.10632","TQ 4697 5664","TQ45","TN16 1NX","JO01BG"
"B/G-0381","ROC Post Penshurst","ROC Bunker","Kent","51.20228","0.18305","TQ 5261 4705","TQ54","TN11 8LP","JO01CE"
"B/G-0382","ROC Post Farningham","ROC Bunker","Kent","51.38134","0.20220","TQ 5335 6700","TQ56","DA4 0JW","JO01CJ"
"B/G-0383","ROC Post Greenhithe","ROC Bunker","Kent","51.43677","0.31249","TQ 6083 7340","TQ67","DA10 1BS","JO01DK"
"B/G-0384","ROC Post Borough Green","ROC Bunker","Kent","51.29172","0.31179","TQ 6129 5727","TQ65","TN15 8HW","JO01DH"
"B/G-0385","ROC Post Wateringbury","ROC Bunker","Kent","51.24597","0.40020","TQ 6762 5238","TQ65","ME18 5HU","JO01EF"
"B/G-0386","ROC Post Snodland","ROC Bunker","Kent","51.32338","0.43180","TQ 6954 6106","TQ66","ME6 5QL","JO01FH"
"B/G-0387","ROC Post Horsmonden","ROC Bunker","Kent","51.12071","0.42514","TQ 6982 3851","TQ63","TN12 8EQ","JO01FC"
"B/G-0388","ROC Post Cliffe","ROC Bunker","Kent","51.46124","0.49225","TQ 7323 7653","TQ77","ME3 7QR","JO01FL"
"B/G-0389","ROC Post Cranbrook","ROC Bunker","Kent","51.09136","0.51586","TQ 7628 3546","TQ73","TN17 2QL","JO01GC"
"B/G-0390","ROC Post Linton - Kent","ROC Bunker","Kent","51.23065","0.52518","TQ 7640 5097","TQ75","ME17 4HR","JO01GF"
"B/G-0391","ROC Post Hoo Master Post","ROC Bunker","Kent","51.43205","0.55684","TQ 7783 7344","TQ77","ME3 9UR","JO01GK"
"B/G-0392","ROC Post Bearsted","ROC Bunker","Kent","51.27468","0.57261","TQ 7954 5598","TQ75","ME14 4LF","JO01GG"
"B/G-0393","ROC Post Rainham - Kent Master Post","ROC Bunker","Kent","51.35099","0.61121","TQ 8193 6456","TQ86","ME8 8PP","JO01HI"
"B/G-0394","ROC Post Headcorn","ROC Bunker","Kent","51.17146","0.61579","TQ 8296 4461","TQ84","TN27 9RB","JO01HE"
"B/G-0395","ROC Post Allhallows","ROC Bunker","Kent","51.46886","0.63695","TQ 8325 7773","TQ87","ME3 9PU","JO01HL"
"B/G-0396","ROC Post Tenterden","ROC Bunker","Kent","51.08203","0.67300","TQ 8732 3481","TQ83","TN30 6TJ","JO01IB"
"B/G-0397","ROC Post Rodmersham Green","ROC Bunker","Kent","51.31929","0.72352","TQ 8988 6132","TQ86","ME9 8AG","JO01IH"
"B/G-0398","ROC Post Lenham","ROC Bunker","Kent","51.25057","0.72375","TQ 9018 5368","TQ95","ME17 2EU","JO01IG"
"B/G-0399","ROC Post Pluckley","ROC Bunker","Kent","51.18030","0.74808","TQ 9217 4593","TQ94","TN27 0PE","JO01IE"
"B/G-0400","ROC Post Sheerness","ROC Bunker","Kent","51.41347","0.76924","TQ 9267 7191","TQ97","ME12 3XA","JO01JJ"
"B/G-0401","ROC Post Bethersden","ROC Bunker","Kent","51.13199","0.75608","TQ 9293 4058","TQ94","TN26 3DD","JO01JD"
"B/G-0402","ROC Post Brookland","ROC Bunker","Kent","50.99428","0.83157","TQ 9880 2547","TQ92","TN29 9QX","JO00JX"
"B/G-0403","ROC Post Eastchurch","ROC Bunker","Kent","51.40219","0.86418","TQ 9932 7091","TQ97","ME12 4DD","JO01KJ"
"B/G-0404","ROC Post Oare","ROC Bunker","Kent","51.32923","0.87212","TR 0019 6282","TR06","ME13 0QJ","JO01KH"
"B/G-0405","ROC Post Hamstreet","ROC Bunker","Kent","51.06404","0.86266","TR 0068 3331","TR03","TN26 2NW","JO01KB"
"B/G-0406","ROC Post Sheldwich Lees","ROC Bunker","Kent","51.28240","0.88913","TR 0158 5766","TR05","ME13 0LR","JO01KG"
"B/G-0407","ROC Post Dungeness","ROC Bunker","Kent","50.94357","0.88216","TR 0257 1997","TR01","TN29 9JN","JO00KW"
"B/G-0408","ROC Post Sevington","ROC Bunker","Kent","51.12764","0.91677","TR 0419 4053","TR04","TN25 6GE","JO01LD"
"B/G-0409","ROC Post Wye","ROC Bunker","Kent","51.17685","0.93819","TR 0547 4606","TR04","TN25 5AZ","JO01LE"
"B/G-0410","ROC Post Blean","ROC Bunker","Kent","51.31577","1.00705","TR 0965 6170","TR06","CT2 9JX","JO01MH"
"B/G-0411","ROC Post Dymchurch","ROC Bunker","Kent","51.04519","1.00076","TR 1044 3160","TR13","TN29 0JP","JO01MB"
"B/G-0412","ROC Post Canterbury","ROC Bunker","Kent","51.28342","1.10233","TR 1644 5838","TR15","CT1 1NL","JO01NG"
"B/G-0413","ROC Post Lyminge","ROC Bunker","Kent","51.12546","1.09615","TR 1675 4080","TR14","CT18 8EB","JO01ND"
"B/G-0414","ROC Post Herne Bay Master Post","ROC Bunker","Kent","51.34242","1.11622","TR 1713 6498","TR16","CT6 7NN","JO01NI"
"B/G-0415","ROC Post Folkestone Master Post","ROC Bunker","Kent","51.10121","1.14854","TR 2053 3826","TR23","CT18 7AD","JO01NC"
"B/G-0416","ROC Post Barham","ROC Bunker","Kent","51.21479","1.17290","TR 2169 5096","TR25","CT4 6HH","JO01OF"
"B/G-0417","ROC Post Upstreet","ROC Bunker","Kent","51.32708","1.20448","TR 2335 6354","TR26","CT3 4DG","JO01OH"
"B/G-0418","ROC Post Folkestone","ROC Bunker","Kent","51.08501","1.19842","TR 2410 3661","TR23","CT19 6PY","JO01OC"
"B/G-0419","ROC Post Birchington","ROC Bunker","Kent","51.37729","1.27525","TR 2803 6934","TR26","CT7 9QT","JO01PJ"
"B/G-0420","ROC Post Eythorne","ROC Bunker","Kent","51.19644","1.28044","TR 2929 4925","TR24","CT15 4BL","JO01PE"
"B/G-0421","ROC Post Ash","ROC Bunker","Kent","51.27599","1.29500","TR 2991 5814","TR25","CT3 2BX","JO01PG"
"B/G-0422","ROC Post Minster","ROC Bunker","Kent","51.34302","1.32322","TR 3154 6568","TR36","CT12 4HY","JO01PI"
"B/G-0423","ROC Post Dover","ROC Bunker","Kent","51.14013","1.34064","TR 3378 4318","TR34","CT15 5DW","JO01QD"
"B/G-0424","ROC Post Kingsdown","ROC Bunker","Kent","51.19242","1.39911","TR 3760 4918","TR34","CT14 8BL","JO01QE"
"B/G-0425","ROC Post Kingsgate","ROC Bunker","Kent","51.38675","1.44096","TR 3951 7092","TR37","CT10 3LT","JO01RJ"
"B/G-0428","ROC Post Lytham","ROC Bunker","Lancashire","53.73865","-3.00784","SD 3362 2739","SD32","FY8 1EQ","IO83LR"
"B/G-0429","ROC Post Barrow-in-Furness Master Post","ROC Bunker","Cumbria","54.10968","-3.26523","SD 1738 6894","SD16","LA14 3NX","IO84IC"
"B/G-0430","ROC Post Broughton-in-Furness Master Post","ROC Bunker","Cumbria","54.28991","-3.20177","SD 2187 8892","SD28","LA20 6AD","IO84JG"
"B/G-0431","ROC Post Formby","ROC Bunker","Merseyside","53.54142","-3.09188","SD 2774 0553","SD20","L37 2EJ","IO83KM"
"B/G-0432","ROC Post Great Crosby","ROC Bunker","Merseyside","53.49805","-3.05715","SD 2997 0067","SD20","L23 8SY","IO83LL"
"B/G-0433","ROC Post Woodvale","ROC Bunker","Merseyside","53.57666","-3.05141","SD 3048 0941","SD30","L37 0AR","IO83LN"
"B/G-0434","ROC Post Southport","ROC Bunker","Merseyside","53.64189","-3.02399","SD 3240 1664","SD31","PR8 2BZ","IO83LP"
"B/G-0435","ROC Post Fleetwood","ROC Bunker","Lancashire","53.92579","-3.02818","SD 3258 4823","SD34","FY7 7BH","IO83LW"
"B/G-0436","ROC Post Hawkshead","ROC Bunker","Cumbria","54.37273","-2.99961","SD 3516 9793","SD39","LA22 0PQ","IO84MI"
"B/G-0437","ROC Post Backbarrow","ROC Bunker","Cumbria","54.24183","-2.98309","SD 3603 8335","SD38","LA12 8EY","IO84MF"
"B/G-0438","ROC Post Flookburgh Master Post","ROC Bunker","Cumbria","54.16860","-2.96986","SD 3678 7519","SD37","LA11 7NG","IO84ME"
"B/G-0439","ROC Post Weeton","ROC Bunker","Lancashire","53.81277","-2.94553","SD 3784 3558","SD33","PR4 3HT","IO83MT"
"B/G-0440","ROC Post Heysham","ROC Bunker","Lancashire","54.03375","-2.90397","SD 4089 6013","SD46","LA3 2UU","IO84NA"
"B/G-0441","ROC Post Burscough Master Post","ROC Bunker","Lancashire","53.58820","-2.86844","SD 4261 1053","SD41","L40 8AB","IO83NO"
"B/G-0442","ROC Post Catforth","ROC Bunker","Lancashire","53.82478","-2.82912","SD 4552 3682","SD43","PR4 0TL","IO83OT"
"B/G-0443","ROC Post Longton - Lancashire","ROC Bunker","Lancashire","53.72820","-2.79539","SD 4762 2605","SD42","PR4 5LN","IO83OR"
"B/G-0444","ROC Post Forton","ROC Bunker","Lancashire","53.94724","-2.76893","SD 4963 5040","SD45","PR3 0FQ","IO83OW"
"B/G-0445","ROC Post Billinge Hill","ROC Bunker","Greater Manchester","53.50722","-2.71751","SD 5251 0141","SD50","WN5 7EZ","IO83PM"
"B/G-0446","ROC Post Parbold","ROC Bunker","Lancashire","53.60701","-2.71558","SD 5275 1251","SD51","WN6 9PL","IO83PO"
"B/G-0447","ROC Post Caton","ROC Bunker","Lancashire","54.07797","-2.70302","SD 5410 6490","SD56","LA2 9JU","IO84PB"
"B/G-0448","ROC Post Brinscall Master Post","ROC Bunker","Lancashire","53.70130","-2.61796","SD 5930 2294","SD52","PR6 8PA","IO83QQ"
"B/G-0449","ROC Post Longridge","ROC Bunker","Lancashire","53.84432","-2.57706","SD 6213 3883","SD63","PR3 2TX","IO83RU"
"B/G-0450","ROC Post Mellor","ROC Bunker","Lancashire","53.77708","-2.52166","SD 6572 3132","SD63","BB2 7FR","IO83RS"
"B/G-0451","ROC Post Atherton","ROC Bunker","Greater Manchester","53.53489","-2.46783","SD 6909 0435","SD60","M46 9HJ","IO83SM"
"B/G-0452","ROC Post Turton","ROC Bunker","Lancashire","53.62477","-2.41938","SD 7236 1433","SD71","BL7 9QD","IO83SO"
"B/G-0453","ROC Post Padiham Master Post","ROC Bunker","Lancashire","53.80738","-2.31126","SD 7960 3461","SD73","BB12 8PD","IO83UT"
"B/G-0454","ROC Post Prestwich","ROC Bunker","Greater Manchester","53.53913","-2.25451","SD 8323 0475","SD80","M25 2SW","IO83UM"
"B/G-0455","ROC Post Bacup Master Post","ROC Bunker","Lancashire","53.70155","-2.20687","SD 8644 2281","SD82","OL13 8NR","IO83VQ"
"B/G-0456","ROC Post Speke","ROC Bunker","Merseyside","53.34306","-2.87066","SJ 4213 8326","SJ48","L24 8AD","IO83NI"
"B/G-0457","ROC Post St. Helens","ROC Bunker","Merseyside","53.44423","-2.77171","SJ 4884 9444","SJ49","WA10 3AG","IO83OK"
"B/G-0458","ROC Post Warrington","ROC Bunker","Cheshire","53.41658","-2.57441","SJ 6192 9124","SJ69","WA2 0LP","IO83RJ"
"B/G-0459","ROC Post Chorlton-cum-Hardy","ROC Bunker","Greater Manchester","53.43440","-2.25735","SJ 8300 9310","SJ89","M21 7UJ","IO83UK"
"B/G-0460","ROC Post Twycross","ROC Bunker","Leicestershire","52.65173","-1.51585","SK 3285 0611","SK30","CV9 3PT","IO92FP"
"B/G-0461","ROC Post Coleorton","ROC Bunker","Leicestershire","52.74339","-1.42715","SK 3877 1635","SK31","LE67 8FH","IO92GR"
"B/G-0462","ROC Post Markfield","ROC Bunker","Leicestershire","52.69271","-1.28237","SK 4860 1080","SK41","LE67 9UD","IO92IQ"
"B/G-0463","ROC Post Shepshed","ROC Bunker","Leicestershire","52.79214","-1.26754","SK 4949 2187","SK42","LE12 5PP","IO92IT"
"B/G-0464","ROC Post Birstall","ROC Bunker","Leicestershire","52.69142","-1.12911","SK 5896 1077","SK51","LE4 3BT","IO92KQ"
"B/G-0465","ROC Post Wymeswold","ROC Bunker","Leicestershire","52.80566","-1.09108","SK 6137 2351","SK62","LE12 6ST","IO92KT"
"B/G-0466","ROC Post Rearsby","ROC Bunker","Leicestershire","52.71716","-1.01830","SK 6641 1373","SK61","LE7 4YL","IO92LR"
"B/G-0467","ROC Post Billesdon","ROC Bunker","Leicestershire","52.61161","-0.94387","SK 7161 0206","SK70","LE7 9BH","IO92MO"
"B/G-0468","ROC Post Melton Mowbray","ROC Bunker","Leicestershire","52.78769","-0.90120","SK 7420 2169","SK72","LE13 0NX","IO92NS"
"B/G-0469","ROC Post Harby","ROC Bunker","Leicestershire","52.86818","-0.89397","SK 7455 3065","SK73","LE14 4DE","IO92NU"
"B/G-0470","ROC Post Cold Overton","ROC Bunker","Leicestershire","52.67883","-0.80897","SK 8062 0968","SK80","LE15 7QD","IO92OQ"
"B/G-0471","ROC Post Bottesford","ROC Bunker","Nottinghamshire","52.94863","-0.79220","SK 8125 3971","SK83","NG13 0EZ","IO92OW"
"B/G-0472","ROC Post Buckminster","ROC Bunker","Leicestershire","52.78909","-0.70987","SK 8710 2206","SK82","NG33 5SF","IO92PS"
"B/G-0473","ROC Post Stoke Golding Master Post","ROC Bunker","Leicestershire","52.56641","-1.41367","SP 3984 9667","SP39","CV13 6PJ","IO92HN"
"B/G-0474","ROC Post Thurlaston","ROC Bunker","Leicestershire","52.59463","-1.26729","SP 4973 9990","SP49","LE9 7TH","IO92IO"
"B/G-0475","ROC Post Lutterworth","ROC Bunker","Leicestershire","52.46578","-1.23557","SP 5203 8559","SP58","LE17 4LP","IO92JL"
"B/G-0476","ROC Post Fleckney","ROC Bunker","Leicestershire","52.53169","-1.06195","SP 6373 9306","SP69","LE8 8AQ","IO92LM"
"B/G-0477","ROC Post Epworth","ROC Bunker","Lincolnshire","53.53034","-0.81087","SE 7892 0440","SE70","DN9 1SN","IO93OM"
"B/G-0478","ROC Post Eastoft","ROC Bunker","Lincolnshire","53.63012","-0.78387","SE 8052 1553","SE81","DN17 4PR","IO93OP"
"B/G-0479","ROC Post Scotter","ROC Bunker","Lincolnshire","53.49718","-0.65034","SE 8963 0090","SE80","DN21 3JB","IO93QL"
"B/G-0480","ROC Post Winterton","ROC Bunker","Lincolnshire","53.65864","-0.58980","SE 9329 1894","SE91","DN15 9QN","IO93QP"
"B/G-0481","ROC Post Scawby","ROC Bunker","Lincolnshire","53.53436","-0.56300","SE 9534 0515","SE90","DN20 9ND","IO93RM"
"B/G-0482","ROC Post Gainsborough","ROC Bunker","Lincolnshire","53.39264","-0.76749","SK 8206 8913","SK88","DN21 1DA","IO93OJ"
"B/G-0483","ROC Post Dunham-on-Trent","ROC Bunker","Lincolnshire","53.25584","-0.76948","SK 8219 7391","SK87","LN1 2BF","IO93OG"
"B/G-0484","ROC Post Claypole","ROC Bunker","Lincolnshire","53.02866","-0.73345","SK 8504 4868","SK84","NG23 5AU","IO93PA"
"B/G-0485","ROC Post Sturton by Stow","ROC Bunker","Lincolnshire","53.30264","-0.67344","SK 8850 7923","SK87","LN1 2AR","IO93PH"
"B/G-0486","ROC Post Grantham","ROC Bunker","Lincolnshire","52.88681","-0.66105","SK 9019 3299","SK93","NG32 1AP","IO92QV"
"B/G-0487","ROC Post Honington - Lincs","ROC Bunker","Lincolnshire","52.99449","-0.61973","SK 9274 4502","SK94","NG32 2BJ","IO92QX"
"B/G-0488","ROC Post Bishop Norton","ROC Bunker","Lincolnshire","53.41667","-0.52454","SK 9816 9211","SK99","LN8 2DT","IO93RK"
"B/G-0489","ROC Post Navenby","ROC Bunker","Lincolnshire","53.08075","-0.53336","SK 9834 5473","SK95","LN5 0DP","IO93RB"
"B/G-0490","ROC Post Castle Bytham","ROC Bunker","Lincolnshire","52.74699","-0.53689","SK 9886 1760","SK91","NG33 4SN","IO92RR"
"B/G-0491","ROC Post Hackthorn","ROC Bunker","Lincolnshire","53.29805","-0.50582","SK 9968 7894","SK97","LN2 3PX","IO93RH"
"B/G-0492","ROC Post Barton-upon-Humber","ROC Bunker","Lincolnshire","53.66886","-0.44278","TA 0298 2028","TA02","DN18 5DZ","IO93SQ"
"B/G-0493","ROC Post North Kelsey","ROC Bunker","Lincolnshire","53.49785","-0.41272","TA 0539 0130","TA00","LN7 6HB","IO93TL"
"B/G-0494","ROC Wootton","ROC Bunker","Lincolnshire","53.62212","-0.37495","TA 0758 1518","TA01","DN39 6RG","IO93TO"
"B/G-0495","ROC Post Swallow","ROC Bunker","Lincolnshire","53.50620","-0.22649","TA 1772 0252","TA10","LN7 6DD","IO93VM"
"B/G-0496","ROC Post Roxton","ROC Bunker","Lincolnshire","53.58925","-0.21364","TA 1834 1178","TA11","DN41 8BW","IO93VO"
"B/G-0497","ROC Post Humberston","ROC Bunker","Lincolnshire","53.53176","-0.00044","TA 3263 0576","TA30","DN36 4JX","IO93XM"
"B/G-0498","ROC Post Canwick","ROC Bunker","Lincolnshire","53.21555","-0.50061","TF 0022 6977","TF06","LN4 2RJ","IO93RF"
"B/G-0499","ROC Post Ingoldsby","ROC Bunker","Lincolnshire","52.85405","-0.49973","TF 0112 2956","TF02","NG33 4EU","IO92SU"
"B/G-0500","ROC Post Sleaford","ROC Bunker","Lincolnshire","53.02720","-0.39636","TF 0765 4897","TF04","NG34 8SH","IO93TA"
"B/G-0501","ROC Post Market Rasen","ROC Bunker","Lincolnshire","53.37500","-0.36228","TF 0905 8771","TF08","LN8 3RZ","IO93TJ"
"B/G-0502","ROC Post Bourne","ROC Bunker","Lincolnshire","52.79048","-0.37586","TF 0962 2267","TF02","PE10 0AD","IO92TS"
"B/G-0503","ROC Post Billingborough","ROC Bunker","Lincolnshire","52.88713","-0.35679","TF 1066 3345","TF13","NG34 0EX","IO92TV"
"B/G-0504","ROC Post Bardney","ROC Bunker","Lincolnshire","53.20601","-0.31842","TF 1241 6898","TF16","LN3 5SU","IO93UE"
"B/G-0505","ROC Post Billinghay","ROC Bunker","Lincolnshire","53.08935","-0.30759","TF 1344 5602","TF15","LN4 3SS","IO93UC"
"B/G-0506","ROC Post Market Deeping","ROC Bunker","Cambridgeshire","52.66014","-0.31342","TF 1417 0827","TF10","PE6 9BD","IO92UP"
"B/G-0507","ROC Post Heckington","ROC Bunker","Lincolnshire","52.99229","-0.23554","TF 1853 4534","TF14","NG34 9LY","IO92VX"
"B/G-0508","ROC Post Burgh-on-Bain","ROC Bunker","Lincolnshire","53.33960","-0.17723","TF 2146 8407","TF28","LN8 6JU","IO93VI"
"B/G-0509","ROC Post Binbrook","ROC Bunker","Lincolnshire","53.42869","-0.15972","TF 2237 9401","TF29","LN8 6FB","IO93WK"
"B/G-0510","ROC Post Baumber","ROC Bunker","Lincolnshire","53.24314","-0.16005","TF 2288 7337","TF27","LN9 5NA","IO93WF"
"B/G-0511","ROC Post Crowland","ROC Bunker","Lincolnshire","52.66708","-0.18065","TF 2313 0926","TF20","PE6 0GE","IO92VQ"
"B/G-0512","ROC Post Quadring Eaudyke","ROC Bunker","Lincolnshire","52.88397","-0.16534","TF 2355 3341","TF23","PE11 4QE","IO92WV"
"B/G-0513","ROC Post Coningsby","ROC Bunker","Lincolnshire","53.08943","-0.12107","TF 2593 5634","TF25","PE22 7SR","IO93WC"
"B/G-0514","ROC Post Spalding","ROC Bunker","Lincolnshire","52.77411","-0.11985","TF 2693 2127","TF22","PE12 6BW","IO92WS"
"B/G-0515","ROC Post Fosdyke","ROC Bunker","Lincolnshire","52.89553","-0.06108","TF 3053 3488","TF33","PE20 2AN","IO92XV"
"B/G-0516","ROC Post Moulton Chapel","ROC Bunker","Lincolnshire","52.74093","-0.04217","TF 3227 1772","TF31","PE12 0SX","IO92XR"
"B/G-0517","ROC Post East Kirkby","ROC Bunker","Lincolnshire","53.14946","-0.01421","TF 3290 6321","TF36","PE23 4BZ","IO93XD"
"B/G-0518","ROC Post Boston","ROC Bunker","Lincolnshire","53.01826","-0.01816","TF 3304 4861","TF34","PE22 7EH","IO93XA"
"B/G-0519","ROC Post Tetford","ROC Bunker","Lincolnshire","53.26692","-0.00638","TF 3306 7629","TF37","LN9 6QR","IO93XG"
"B/G-0520","ROC Post Louth","ROC Bunker","Lincolnshire","53.34266","0.00722","TF 3373 8474","TF38","LN11 9SY","JO03AI"
"B/G-0521","ROC Post Fulstow","ROC Bunker","Lincolnshire","53.45362","0.01652","TF 3400 9710","TF39","LN11 0ZX","JO03AK"
"B/G-0522","ROC Post Holbeach","ROC Bunker","Lincolnshire","52.81743","0.02330","TF 3645 2635","TF32","PE12 7PR","JO02AT"
"B/G-0523","ROC Post Alford","ROC Bunker","Lincolnshire","53.24538","0.11178","TF 4101 7412","TF47","LN13 0EY","JO03BF"
"B/G-0524","ROC Post Little Steeping","ROC Bunker","Lincolnshire","53.13457","0.12951","TF 4256 6183","TF46","PE23 5BE","JO03BD"
"B/G-0525","ROC Post Long Sutton","ROC Bunker","Lincolnshire","52.80799","0.14082","TF 4440 2553","TF42","PE12 9LJ","JO02BT"
"B/G-0526","ROC Post North Somercotes","ROC Bunker","Lincolnshire","53.42905","0.17702","TF 4474 9468","TF49","LN11 7RX","JO03CK"
"B/G-0527","ROC Post Old Leake","ROC Bunker","Lincolnshire","53.01755","0.15714","TF 4480 4887","TF44","PE22 9JL","JO03BA"
"B/G-0528","ROC Post Friskney","ROC Bunker","Lincolnshire","53.06451","0.22845","TF 4942 5424","TF45","PE22 8SD","JO03CB"
"B/G-0529","ROC Post Mablethorpe","ROC Bunker","Lincolnshire","53.35250","0.25667","TF 5030 8633","TF58","LN12 1QX","JO03DI"
"B/G-0530","ROC Post Skegness","ROC Bunker","Lincolnshire","53.16472","0.32460","TF 5550 6559","TF56","PE25 1FA","JO03DD"
"B/G-0531","ROC Post Chapel St. Leonards","ROC Bunker","Lincolnshire","53.23532","0.33756","TF 5611 7347","TF57","PE24 5XB","JO03EF"
"B/G-0532","ROC Post Hounslow","ROC Bunker","Greater London","51.46261","-0.43380","TQ 0890 7490","TQ07","TW14 9RL","IO91SL"
"B/G-0533","ROC Post Northolt","ROC Bunker","Greater London","51.55374","-0.42375","TQ 0938 8505","TQ08","HA4 6PW","IO91SN"
"B/G-0534","ROC Post Acton","ROC Bunker","Greater London","51.52366","-0.32893","TQ 1603 8185","TQ18","W13 0DH","IO91UM"
"B/G-0535","ROC Post Colindale","ROC Bunker","Greater London","51.57930","-0.27190","TQ 1984 8813","TQ18","NW9 9NT","IO91UN"
"B/G-0536","ROC Post Enfield","ROC Bunker","Greater London","51.68182","-0.13694","TQ 2890 9976","TQ29","EN2 8AN","IO91WQ"
"B/G-0537","ROC Post Bowes Park","ROC Bunker","Greater London","51.59699","-0.12367","TQ 3006 9035","TQ39","N22 7BD","IO91WO"
"B/G-0538","ROC Post Dulwich","ROC Bunker","Greater London","51.43750","-0.07488","TQ 3390 7270","TQ37","SE21 7LH","IO91XK"
"B/G-0539","ROC Post Stratford","ROC Bunker","Greater London","51.52295","0.03950","TQ 4159 8242","TQ48","E13 9PD","JO01AM"
"B/G-0540","ROC Post Melton Constable","ROC Bunker","Norfolk","52.89890","1.03326","TG 0411 3780","TG03","NR25 7JJ","JO02MV"
"B/G-0541","ROC Post Cley-next-the-Sea","ROC Bunker","Norfolk","52.95430","1.06748","TG 0616 4405","TG04","NR25 7XE","JO02MW"
"B/G-0542","ROC Post West Walton","ROC Bunker","Norfolk","52.70479","0.18890","TF 4799 1415","TF41","PE14 7EF","JO02CQ"
"B/G-0543","ROC Post Upwell","ROC Bunker","Norfolk","52.59677","0.22013","TF 5047 0220","TF50","PE14 9HS","JO02CO"
"B/G-0544","ROC Post Wiggenhall St Germans","ROC Bunker","Norfolk","52.68977","0.33524","TF 5793 1279","TF51","PE34 3EW","JO02EQ"
"B/G-0545","ROC Post Downham Market","ROC Bunker","Norfolk","52.60570","0.36237","TF 6007 0350","TF60","PE38 9BS","JO02EO"
"B/G-0546","ROC Post King's Lynn","ROC Bunker","Norfolk","52.77846","0.37468","TF 6027 2274","TF62","PE30 2JF","JO02ES"
"B/G-0547","ROC Post Middleton","ROC Bunker","Norfolk","52.71560","0.47595","TF 6734 1598","TF61","PE32 1EB","JO02FR"
"B/G-0548","ROC Post Hunstanton","ROC Bunker","Norfolk","52.94930","0.49285","TF 6758 4201","TF64","PE36 6EL","JO02FW"
"B/G-0549","ROC Post Dersingham","ROC Bunker","Norfolk","52.85710","0.51594","TF 6949 3181","TF63","PE31 6NF","JO02GU"
"B/G-0550","ROC Post Stoke Ferry","ROC Bunker","Norfolk","52.57650","0.50559","TF 6988 0058","TF60","PE33 9SS","JO02GN"
"B/G-0551","ROC Post Narborough","ROC Bunker","Norfolk","52.63534","0.57133","TF 7410 0728","TF70","PE37 8BH","JO02GP"
"B/G-0552","ROC Post Docking","ROC Bunker","Norfolk","52.90082","0.60650","TF 7541 3689","TF73","PE31 8GR","JO02HV"
"B/G-0553","ROC Post Brancaster","ROC Bunker","Norfolk","52.95418","0.63770","TF 7729 4290","TF74","PE31 8DT","JO02HW"
"B/G-0554","ROC Post Swaffham","ROC Bunker","Norfolk","52.67000","0.69081","TF 8204 1143","TF81","PE37 7HY","JO02IQ"
"B/G-0555","ROC Post South Creake","ROC Bunker","Norfolk","52.88124","0.74921","TF 8509 3507","TF83","NR21 9LZ","JO02IV"
"B/G-0556","ROC Post West Raynham","ROC Bunker","Norfolk","52.78759","0.75072","TF 8559 2466","TF82","NR21 7JT","JO02JS"
"B/G-0557","ROC Post Wells-next-the-Sea","ROC Bunker","Norfolk","52.94196","0.85101","TF 9167 4209","TF94","NR23 1FH","JO02KW"
"B/G-0558","ROC Post Watton","ROC Bunker","Norfolk","52.59939","0.84554","TF 9281 0398","TF90","IP25 6SB","JO02KO"
"B/G-0559","ROC Post Gressenhall","ROC Bunker","Norfolk","52.73141","0.88983","TF 9522 1878","TF91","NR20 4HL","JO02KR"
"B/G-0560","ROC Post Fakenham","ROC Bunker","Norfolk","52.82544","0.90201","TF 9562 2927","TF92","NR21 0LL","JO02KT"
"B/G-0561","ROC Post East Dereham","ROC Bunker","Norfolk","52.64630","0.95356","TF 9991 0949","TF90","NR19 1QR","JO02LP"
"B/G-0562","ROC Post Guist","ROC Bunker","Norfolk","52.80599","0.97239","TG 0045 2730","TG02","NR20 5AX","JO02LT"
"B/G-0563","ROC Post Hingham","ROC Bunker","Norfolk","52.57697","1.00691","TG 0384 0193","TG00","NR9 4LR","JO02MN"
"B/G-0564","ROC Post Reepham","ROC Bunker","Norfolk","52.72821","1.08811","TG 0862 1898","TG01","NR9 5QS","JO02NR"
"B/G-0565","ROC Post Honingham","ROC Bunker","Norfolk","52.64916","1.09156","TG 0923 1020","TG01","NR20 3NE","JO02NP"
"B/G-0566","ROC Post Saxthorpe","ROC Bunker","Norfolk","52.81817","1.13828","TG 1157 2913","TG12","NR11 6QE","JO02NT"
"B/G-0567","ROC Post West Beckham","ROC Bunker","Norfolk","52.90398","1.18137","TG 1405 3880","TG13","NR25 6PL","JO02OV"
"B/G-0568","ROC Post Aylsham","ROC Bunker","Norfolk","52.78114","1.24107","TG 1868 2532","TG12","NR11 6UE","JO02OS"
"B/G-0569","ROC Post Hellesdon","ROC Bunker","Norfolk","52.65374","1.25278","TG 2011 1119","TG21","NR6 5EU","JO02PP"
"B/G-0570","ROC Post Cromer","ROC Bunker","Norfolk","52.92498","1.31788","TG 2312 4155","TG24","NR27 0DJ","JO02PW"
"B/G-0571","ROC Post North Walsham","ROC Bunker","Norfolk","52.84345","1.33231","TG 2451 3253","TG23","NR11 7EJ","JO02PU"
"B/G-0572","ROC Post Framingham Earl","ROC Bunker","Norfolk","52.57302","1.31942","TG 2503 0242","TG20","NR14 8XS","JO02PN"
"B/G-0573","ROC Post Coltishall[3]","ROC Bunker","Norfolk","52.71966","1.34655","TG 2611 1881","TG21","NR12 7EH","JO02QR"
"B/G-0574","ROC Post Mundesley","ROC Bunker","Norfolk","52.87867","1.41915","TG 3017 3672","TG33","NR11 8ES","JO02RV"
"B/G-0575","ROC Post Brundall","ROC Bunker","Norfolk","52.62159","1.46054","TG 3433 0827","TG30","NR13 4JA","JO02RO"
"B/G-0576","ROC Post Walcott","ROC Bunker","Norfolk","52.83092","1.52335","TG 3744 3175","TG33","NR12 0QY","JO02ST"
"B/G-0577","ROC Post Stalham","ROC Bunker","Norfolk","52.77085","1.54400","TG 3916 2514","TG32","NR12 9TD","JO02SS"
"B/G-0578","ROC Post Freethorpe","ROC Bunker","Norfolk","52.59312","1.56212","TG 4136 0544","TG40","NR13 3PE","JO02SO"
"B/G-0579","ROC Post Martham","ROC Bunker","Norfolk","52.69313","1.59217","TG 4284 1666","TG41","NR29 4RB","JO02TQ"
"B/G-0580","ROC Post Fleggburgh","ROC Bunker","Norfolk","52.64277","1.63314","TG 4589 1120","TG41","NR29 3EF","JO02TP"
"B/G-0581","ROC Post Winterton Ness","ROC Bunker","Norfolk","52.71587","1.69772","TG 4984 1955","TG41","NR29 4DD","JO02UR"
"B/G-0582","ROC Post Caister","ROC Bunker","Norfolk","52.64456","1.70294","TG 5060 1164","TG51","NR30 5SY","JO02UP"
"B/G-0583","ROC Post Southery","ROC Bunker","Norfolk","52.52527","0.38238","TL 6172 9460","TL69","PE38 0PL","JO02EM"
"B/G-0584","ROC Post Mundford","ROC Bunker","Norfolk","52.52436","0.66155","TL 8066 9516","TL89","IP26 5HX","JO02HM"
"B/G-0585","ROC Post Thetford","ROC Bunker","Norfolk","52.43477","0.74134","TL 8645 8540","TL88","IP24 1HB","JO02IK"
"B/G-0586","ROC Post Great Hockham","ROC Bunker","Norfolk","52.49981","0.88021","TL 9560 9300","TL99","IP24 1PG","JO02KL"
"B/G-0587","ROC Post Garboldisham","ROC Bunker","Norfolk","52.39532","0.95984","TM 0148 8160","TM08","IP22 2SP","JO02LJ"
"B/G-0588","ROC Post New Buckenham","ROC Bunker","Norfolk","52.47423","1.08516","TM 0963 9073","TM09","NR16 2BH","JO02NL"
"B/G-0589","ROC Post Diss","ROC Bunker","Norfolk","52.38483","1.10567","TM 1145 8085","TM18","IP22 4GJ","JO02NJ"
"B/G-0590","ROC Post Wymondham","ROC Bunker","Norfolk","52.54535","1.13352","TM 1257 9878","TM19","NR18 9NU","JO02NN"
"B/G-0591","ROC Post Long Stratton","ROC Bunker","Norfolk","52.48217","1.24187","TM 2023 9208","TM29","NR15 2RP","JO02OL"
"B/G-0592","ROC Post Harleston (Norfolk)","ROC Bunker","Norfolk","52.39507","1.31472","TM 2562 8262","TM28","IP20 9EB","JO02PJ"
"B/G-0593","ROC Post Loddon","ROC Bunker","Norfolk","52.53054","1.49216","TM 3696 9825","TM39","NR14 6JL","JO02RM"
"B/G-0594","ROC Post Aldeby","ROC Bunker","Norfolk","52.48240","1.58292","TM 4338 9320","TM49","NR34 0AH","JO02SL"
"B/G-0595","ROC Post Duddington","ROC Bunker","Northamptonshire","52.59449","-0.53519","SK 9932 0064","SK90","PE9 3QH","IO92RO"
"B/G-0596","ROC Post Chipping Warden","ROC Bunker","Northamptonshire","52.16289","-1.26300","SP 5051 5188","SP55","NN11 6UA","IO92ID"
"B/G-0597","ROC Post Crick","ROC Bunker","Northamptonshire","52.35382","-1.15117","SP 5791 7320","SP57","NN6 7XR","IO92KI"
"B/G-0598","ROC Post Brackley","ROC Bunker","Northamptonshire","52.03140","-1.14986","SP 5842 3734","SP53","NN13 6EN","IO92KA"
"B/G-0599","ROC Post Daventry","ROC Bunker","Northamptonshire","52.25790","-1.14026","SP 5878 6254","SP56","NN11 4SN","IO92KG"
"B/G-0600","ROC Post Blakesley","ROC Bunker","Northamptonshire","52.15886","-1.08574","SP 6264 5157","SP65","NN12 8HW","IO92KD"
"B/G-0601","ROC Post East Haddon","ROC Bunker","Northamptonshire","52.30485","-1.01601","SP 6719 6787","SP66","NN6 8DX","IO92LH"
"B/G-0602","ROC Post Clipston","ROC Bunker","Northamptonshire","52.43759","-0.96819","SP 7024 8268","SP78","LE16 9SB","IO92MK"
"B/G-0603","ROC Post Duston","ROC Bunker","Northamptonshire","52.23746","-0.95760","SP 7128 6043","SP76","NN5 4UU","IO92MF"
"B/G-0604","ROC Post Roade","ROC Bunker","Northamptonshire","52.15724","-0.90539","SP 7498 5156","SP75","NN7 2ND","IO92ND"
"B/G-0605","ROC Post Brixworth Master Post","ROC Bunker","Northamptonshire","52.33216","-0.89154","SP 7563 7103","SP77","NN6 9YE","IO92NH"
"B/G-0606","ROC Post Sutton Bassett","ROC Bunker","Northamptonshire","52.50795","-0.85721","SP 7766 9062","SP79","LE16 8HP","IO92NM"
"B/G-0607","ROC Post Cogenhoe","ROC Bunker","Northamptonshire","52.20750","-0.80391","SP 8183 5726","SP85","NN7 2BA","IO92OE"
"B/G-0608","ROC Post East Carlton","ROC Bunker","Northamptonshire","52.48983","-0.77167","SP 8350 8870","SP88","LE16 8YD","IO92OL"
"B/G-0609","ROC Post Corby","ROC Bunker","Northamptonshire","52.49803","-0.74684","SP 8517 8964","SP88","LE16 8TW","IO92PL"
"B/G-0610","ROC Post Kettering","ROC Bunker","Northamptonshire","52.36836","-0.73641","SP 8613 7523","SP87","NN14 1EW","IO92PI"
"B/G-0611","ROC Post Earls Barton","ROC Bunker","Northamptonshire","52.27366","-0.72562","SP 8705 6471","SP86","NN29 7TZ","IO92PG"
"B/G-0612","ROC Post Benefield","ROC Bunker","Northamptonshire","52.49865","-0.58669","SP 9604 8991","SP98","PE8 5AS","IO92QL"
"B/G-0613","ROC Post Raunds","ROC Bunker","Northamptonshire","52.35857","-0.54975","SP 9886 7438","SP97","NN14 4ER","IO92RI"
"B/G-0614","ROC Post Wansford","ROC Bunker","Cambridgeshire","52.56638","-0.40525","TL 0819 9770","TL09","PE8 6JU","IO92TN"
"B/G-0615","ROC Post Oundle","ROC Bunker","Northamptonshire","52.46258","-0.40150","TL 0870 8616","TL08","PE8 5QE","IO92TL"
"B/G-0616","ROC Post Castor","ROC Bunker","Cambridgeshire","52.58057","-0.32592","TL 1353 9940","TL19","PE6 7AG","IO92UN"
"B/G-0617","ROC Post Byrness","ROC Bunker","Northumberland","55.32175","-2.34477","NT 7822 0313","NT70","NE19 1TR","IO85TH"
"B/G-0618","ROC Post Norham-on-Tweed","ROC Bunker","Northumberland","55.70969","-2.14989","NT 9068 4626","NT94","TD15 2NL","IO85WR"
"B/G-0619","ROC Post Milfield","ROC Bunker","Northumberland","55.60469","-2.11203","NT 9304 3457","NT93","NE71 6JE","IO85WO"
"B/G-0620","ROC Post Harbottle","ROC Bunker","Northumberland","55.34574","-2.10183","NT 9364 0575","NT90","NE65 7BD","IO85WI"
"B/G-0621","ROC Post Hart Heugh","ROC Bunker","Northumberland","55.52109","-2.02468","NT 9854 2526","NT92","NE71 6RD","IO85XM"
"B/G-0622","ROC Post Whittingham","ROC Bunker","Northumberland","55.39703","-1.88424","NU 0743 1146","NU01","NE66 4RJ","IO95BJ"
"B/G-0623","ROC Post Fenham Hill","ROC Bunker","Northumberland","55.67935","-1.88087","NU 0759 4288","NU04","TD15 2PB","IO95BQ"
"B/G-0624","ROC Post Bamburgh","ROC Bunker","Northumberland","55.60797","-1.73854","NU 1657 3496","NU13","NE69 7AQ","IO95DO"
"B/G-0625","ROC Post Shilbottle","ROC Bunker","Northumberland","55.36653","-1.70022","NU 1910 0810","NU10","NE66 2HW","IO95DI"
"B/G-0626","ROC Post Embleton","ROC Bunker","Northumberland","55.49523","-1.64321","NU 2264 2244","NU22","NE66 3XJ","IO95EL"
"B/G-0627","ROC Post Longhoughton","ROC Bunker","Northumberland","55.43298","-1.59257","NU 2588 1553","NU21","NE66 3AL","IO95EK"
"B/G-0628","ROC Post Redrow","ROC Bunker","Northumberland","55.29697","-1.57633","NU 2700 0040","NU20","NE61 5BX","IO95FH"
"B/G-0629","ROC Post Kielder","ROC Bunker","Northumberland","55.21958","-2.58155","NY 6310 9186","NY69","NE48 1HD","IO85RF"
"B/G-0630","ROC Post Gilsland","ROC Bunker","Northumberland","54.98701","-2.56536","NY 6392 6597","NY66","CA8 7EH","IO84RX"
"B/G-0631","ROC Post Whitfield","ROC Bunker","Northumberland","54.91243","-2.34610","NY 7791 5758","NY75","NE47 8JG","IO84TV"
"B/G-0632","ROC Post Haydon Bridge","ROC Bunker","Northumberland","54.98815","-2.25345","NY 8388 6598","NY86","NE47 6HR","IO84UX"
"B/G-0633","ROC Post Bellingham","ROC Bunker","Northumberland","55.14839","-2.24144","NY 8471 8381","NY88","NE48 2EE","IO85VD"
"B/G-0634","ROC Post Otterburn","ROC Bunker","Northumberland","55.24946","-2.14406","NY 9094 9504","NY99","NE19 1AH","IO85WF"
"B/G-0635","ROC Post Slaley","ROC Bunker","Northumberland","54.91651","-2.04490","NY 9722 5798","NY95","NE47 0AD","IO84XV"
"B/G-0636","ROC Post Great Whittington","ROC Bunker","Northumberland","55.03748","-1.98886","NZ 0081 7144","NZ07","NE19 2HY","IO95AA"
"B/G-0637","ROC Post Prudhoe","ROC Bunker","Northumberland","54.95553","-1.85819","NZ 0918 6233","NZ06","NE42 6JJ","IO94BW"
"B/G-0638","ROC Post Hartburn","ROC Bunker","Northumberland","55.16435","-1.84693","NZ 0985 8557","NZ08","NE61 3SP","IO95BD"
"B/G-0639","ROC Post Longhorsley","ROC Bunker","Northumberland","55.24287","-1.77853","NZ 1418 9432","NZ19","NE65 8UX","IO95CF"
"B/G-0640","ROC Post Ponteland","ROC Bunker","Northumberland","55.02016","-1.75755","NZ 1560 6954","NZ16","NE15 9RD","IO95CA"
"B/G-0641","ROC Post Stannington","ROC Bunker","Northumberland","55.11503","-1.66856","NZ 2124 8012","NZ28","NE61 6EE","IO95DC"
"B/G-0642","ROC Post Kenton","ROC Bunker","Tyne and Wear","55.00143","-1.66558","NZ 2149 6748","NZ26","NE3 3ED","IO95EA"
"B/G-0643","ROC Post Ellington","ROC Bunker","Northumberland","55.22608","-1.55271","NZ 2855 9252","NZ29","NE61 5BS","IO95FF"
"B/G-0644","ROC Post Blyth","ROC Bunker","Northumberland","55.09988","-1.49692","NZ 3220 7850","NZ37","NE24 3PH","IO95GC"
"B/G-0645","ROC Post Whitley Bay","ROC Bunker","Tyne and Wear","55.03471","-1.45143","NZ 3516 7127","NZ37","NE30 3HU","IO95GA"
"B/G-0648","ROC Post Pleasley Hill","ROC Bunker","Nottinghamshire","53.17456","-1.24069","SK 5085 6443","SK56","NG19 7RU","IO93JE"
"B/G-0649","ROC Post Hucknall","ROC Bunker","Nottinghamshire","53.03653","-1.23358","SK 5149 4908","SK54","NG15 6QB","IO93JA"
"B/G-0650","ROC Post Clifton","ROC Bunker","Nottinghamshire","52.89768","-1.19916","SK 5397 3366","SK53","NG11 8ES","IO92JV"
"B/G-0651","ROC Post Edwinstowe","ROC Bunker","Nottinghamshire","53.17792","-1.06782","SK 6240 6494","SK66","NG21 9JF","IO93LE"
"B/G-0652","ROC Post Cotgrave","ROC Bunker","Nottinghamshire","52.89993","-1.06413","SK 6305 3402","SK63","NG12 5PA","IO92LV"
"B/G-0653","ROC Post Blyth","ROC Bunker","Nottinghamshire","53.36787","-1.04745","SK 6348 8609","SK68","S81 8DU","IO93LI"
"B/G-0654","ROC Post Farnsfield","ROC Bunker","Nottinghamshire","53.11972","-1.05174","SK 6356 5848","SK65","NG22 8BP","IO93LC"
"B/G-0655","ROC Post Burton Joyce","ROC Bunker","Nottinghamshire","52.99694","-1.04296","SK 6433 4483","SK64","NG14 5FP","IO92LX"
"B/G-0656","ROC Post East Markham","ROC Bunker","Nottinghamshire","53.25471","-0.91176","SK 7270 7363","SK77","NG22 0PJ","IO93NG"
"B/G-0657","ROC Post Clarborough","ROC Bunker","Nottinghamshire","53.33926","-0.87822","SK 7479 8307","SK78","DN22 9NE","IO93NI"
"B/G-0658","ROC Post Newark-on-Trent","ROC Bunker","Nottinghamshire","53.10611","-0.87294","SK 7555 5714","SK75","NG23 6BE","IO93NC"
"B/G-0659","ROC Post Wiseton","ROC Bunker","Nottinghamshire","53.41670","-0.86429","SK 7558 9170","SK79","DN10 4NB","IO93NK"
"B/G-0660","ROC Post Collingham","ROC Bunker","Nottinghamshire","53.15647","-0.74809","SK 8381 6288","SK86","NG23 7NU","IO93PD"
"B/G-0661","ROC Post Carterton","ROC Bunker","Oxfordshire","51.76310","-1.63756","SP 2511 0722","SP20","OX18 4AP","IO91ES"
"B/G-0662","ROC Post Shipton-under-Wychwood","ROC Bunker","Oxfordshire","51.87172","-1.58440","SP 2871 1932","SP21","OX7 6BJ","IO91EU"
"B/G-0663","ROC Post Hailey","ROC Bunker","Oxfordshire","51.81429","-1.49688","SP 3478 1297","SP31","OX29 9XH","IO91GT"
"B/G-0664","ROC Post Enstone","ROC Bunker","Oxfordshire","51.91176","-1.45930","SP 3729 2383","SP32","OX7 4HH","IO91GV"
"B/G-0665","ROC Post Swalcliffe","ROC Bunker","Oxfordshire","52.03825","-1.45749","SP 3731 3790","SP33","OX15 5ER","IO92GA"
"B/G-0666","ROC Post Bloxham","ROC Bunker","Oxfordshire","52.00531","-1.34352","SP 4516 3430","SP43","OX15 4HF","IO92HA"
"B/G-0667","ROC Post Boars Hill","ROC Bunker","Oxfordshire","51.72236","-1.29768","SP 4861 0286","SP40","OX1 5EU","IO91IR"
"B/G-0668","ROC Post Kidlington","ROC Bunker","Oxfordshire","51.81485","-1.27797","SP 4987 1316","SP41","OX5 2NX","IO91IT"
"B/G-0669","ROC Post Middleton Stoney","ROC Bunker","Oxfordshire","51.90957","-1.21380","SP 5418 2374","SP52","OX25 4TA","IO91JV"
"B/G-0670","ROC Post Brill","ROC Bunker","Oxfordshire","51.83104","-1.07237","SP 6402 1512","SP61","HP18 9XD","IO91LT"
"B/G-0671","ROC Post Thame","ROC Bunker","Oxfordshire","51.74735","-0.95762","SP 7206 0592","SP70","OX9 3JL","IO91MR"
"B/G-0672","ROC Post Culham","ROC Bunker","Oxfordshire","51.65093","-1.26135","SU 5120 9494","SU59","OX14 4NE","IO91IP"
"B/G-0673","ROC Post Stadhampton","ROC Bunker","Oxfordshire","51.67540","-1.09623","SU 6259 9779","SU69","OX44 7SG","IO91KQ"
"B/G-0674","ROC Post Checkendon","ROC Bunker","Oxfordshire","51.57044","-1.03598","SU 6691 8617","SU68","RG9 5TD","IO91LN"
"B/G-0675","ROC Post Watlington","ROC Bunker","Oxfordshire","51.63646","-0.97519","SU 7102 9357","SU79","OX49 5HS","IO91MP"
"B/G-0676","ROC Post Shiplake","ROC Bunker","Oxfordshire","51.49423","-0.90679","SU 7599 7782","SU77","RG9 4BX","IO91NL"
"B/G-0677","ROC Post Empingham","ROC Bunker","Rutland","52.67459","-0.60202","SK 9462 0946","SK90","LE15 8QA","IO92QQ"
"B/G-0678","ROC Post Uppingham","ROC Bunker","Rutland","52.58253","-0.74650","SP 8503 9904","SP89","LE15 9HJ","IO92PN"
"B/G-0679","ROC Post Oswestry","ROC Bunker","Shropshire","52.86188","-3.04607","SJ 2967 2989","SJ22","SY11 2LZ","IO82LU"
"B/G-0680","ROC Post Minsterley","ROC Bunker","Shropshire","52.64251","-2.92969","SJ 3719 0538","SJ30","SY5 0AF","IO82MP"
"B/G-0681","ROC Post Nesscliffe","ROC Bunker","Shropshire","52.76234","-2.90764","SJ 3885 1869","SJ31","SY4 1DN","IO82NS"
"B/G-0682","ROC Post Cockshutt","ROC Bunker","Shropshire","52.85414","-2.84451","SJ 4323 2885","SJ42","SY12 0JQ","IO82NU"
"B/G-0683","ROC Post Bomere Heath","ROC Bunker","Shropshire","52.77566","-2.76501","SJ 4849 2006","SJ42","SY4 3LX","IO82OS"
"B/G-0684","ROC Post Upton Magna","ROC Bunker","Shropshire","52.70855","-2.66852","SJ 5493 1253","SJ51","SY4 4TS","IO82PR"
"B/G-0685","ROC Post Whitchurch - Shropshire","ROC Bunker","Shropshire","52.97404","-2.66368","SJ 5553 4206","SJ54","SY13 1PG","IO82QX"
"B/G-0686","ROC Post Prees","ROC Bunker","Shropshire","52.89354","-2.65546","SJ 5600 3310","SJ53","SY13 2EP","IO82QV"
"B/G-0687","ROC Post Great Bolas","ROC Bunker","Shropshire","52.78575","-2.55005","SJ 6300 2105","SJ62","TF6 6QH","IO82RS"
"B/G-0688","ROC Post Market Drayton","ROC Bunker","Shropshire","52.90793","-2.50669","SJ 6602 3462","SJ63","TF9 3UN","IO82RV"
"B/G-0689","ROC Post Oakengates","ROC Bunker","Shropshire","52.68807","-2.45487","SJ 6935 1014","SJ61","TF2 0EZ","IO82SQ"
"B/G-0690","ROC Post Sambrook","ROC Bunker","Shropshire","52.81593","-2.42535","SJ 7143 2435","SJ72","TF10 8BW","IO82ST"
"B/G-0691","ROC Post Dorrington","ROC Bunker","Shropshire","52.62217","-2.38004","SJ 7437 0278","SJ70","TF11 9NT","IO82TO"
"B/G-0692","ROC Post Boscobel","ROC Bunker","Shropshire","52.67762","-2.25258","SJ 8302 0891","SJ80","ST19 9AP","IO82UQ"
"B/G-0693","ROC Post Lydbury North","ROC Bunker","Shropshire","52.46781","-2.94337","SO 3601 8596","SO38","SY7 8AP","IO82ML"
"B/G-0694","ROC Post Craven Arms","ROC Bunker","Shropshire","52.44745","-2.85466","SO 4201 8362","SO48","SY7 9AG","IO82NK"
"B/G-0695","ROC Post Church Stretton","ROC Bunker","Shropshire","52.53132","-2.79039","SO 4648 9290","SO49","SY6 7AP","IO82OM"
"B/G-0696","ROC Post Ludlow","ROC Bunker","Shropshire","52.36504","-2.72985","SO 5040 7436","SO57","SY8 2LN","IO82PI"
"B/G-0697","ROC Post Tenbury Wells","ROC Bunker","Shropshire","52.32016","-2.60587","SO 5880 6929","SO56","WR15 8HB","IO82QH"
"B/G-0698","ROC Post Ditton Priors","ROC Bunker","Shropshire","52.49972","-2.58182","SO 6060 8925","SO68","WV16 6SP","IO82RL"
"B/G-0699","ROC Post Much Wenlock","ROC Bunker","Shropshire","52.58374","-2.57127","SO 6139 9859","SO69","TF13 6QB","IO82RO"
"B/G-0700","ROC Post Stottesdon","ROC Bunker","Shropshire","52.44063","-2.46600","SO 6842 8262","SO68","DY14 8UQ","IO82SK"
"B/G-0701","ROC Post Bridgnorth","ROC Bunker","Shropshire","52.53583","-2.39271","SO 7346 9318","SO79","WV15 5HW","IO82TM"
"B/G-0702","ROC Post Pattingham","ROC Bunker","Staffordshire","52.57096","-2.27026","SO 8178 9705","SO89","WV6 7EN","IO82UN"
"B/G-0704","ROC Post Exford","ROC Bunker","Somerset","51.12932","-3.65884","SS 8402 3798","SS83","TA24 7ND","IO81ED"
"B/G-0705","ROC Post Dulverton","ROC Bunker","Somerset","51.03322","-3.59836","SS 8802 2720","SS82","TA22 9RZ","IO81EA"
"B/G-0706","ROC Post Dunster","ROC Bunker","Somerset","51.19023","-3.42476","ST 0053 4441","ST04","TA24 6TH","IO81GE"
"B/G-0707","ROC Post Lydeard St. Lawrence","ROC Bunker","Somerset","51.07459","-3.25134","ST 1243 3133","ST13","TA4 3PL","IO81IB"
"B/G-0708","ROC Post Wellington","ROC Bunker","Somerset","51.00354","-3.20981","ST 1521 2338","ST12","TA21 0DA","IO81JA"
"B/G-0709","ROC Post Holford","ROC Bunker","Somerset","51.17881","-3.20037","ST 1619 4286","ST14","TA5 1SS","IO81JE"
"B/G-0710","ROC Post Kingston St. Mary","ROC Bunker","Somerset","51.06768","-3.09787","ST 2317 3039","ST23","TA2 8HS","IO81KB"
"B/G-0711","ROC Post Puriton","ROC Bunker","Somerset","51.18245","-3.01518","ST 2914 4307","ST24","TA6 4SL","IO81LE"
"B/G-0712","ROC Post Chard","ROC Bunker","Somerset","50.87752","-2.98367","ST 3089 0913","ST30","TA20 3PS","IO80MV"
"B/G-0713","ROC Post Hatch Beauchamp","ROC Bunker","Somerset","50.99102","-2.98179","ST 3119 2175","ST32","TA3 6AW","IO80MX"
"B/G-0714","ROC Post Bleadon","ROC Bunker","Somerset","51.31642","-2.94094","ST 3452 5790","ST35","BS24 0AD","IO81MH"
"B/G-0715","ROC Post Chilton Polden","ROC Bunker","Somerset","51.13950","-2.87830","ST 3865 3817","ST33","TA7 9AN","IO81ND"
"B/G-0716","ROC Post Clevedon","ROC Bunker","Somerset","51.44343","-2.85376","ST 4076 7195","ST47","BS21 7HN","IO81NK"
"B/G-0717","ROC Post Langport","ROC Bunker","Somerset","51.05207","-2.83256","ST 4174 2841","ST42","TA10 0QG","IO81OB"
"B/G-0718","ROC Post Crewkerne","ROC Bunker","Dorset","50.86085","-2.81267","ST 4290 0713","ST40","TA18 8PL","IO80OU"
"B/G-0719","ROC Post Portishead","ROC Bunker","Somerset","51.47890","-2.79582","ST 4483 7585","ST47","BS20 8DF","IO81OL"
"B/G-0720","ROC Post Stoke-under-Ham also known as Hamhill","ROC Bunker","Somerset","50.95240","-2.74436","ST 4781 1726","ST41","TA14 6PT","IO80PW"
"B/G-0721","ROC Post Glastonbury","ROC Bunker","Somerset","51.14035","-2.72737","ST 4921 3815","ST43","BA6 8AB","IO81PD"
"B/G-0722","ROC Post Westbury-sub-Mendip","ROC Bunker","Somerset","51.25416","-2.71770","ST 5001 5080","ST55","BA5 1JH","IO81PG"
"B/G-0723","ROC Post Long Ashton","ROC Bunker","Somerset","51.42146","-2.66423","ST 5391 6937","ST56","BS48 3EG","IO81QK"
"B/G-0724","ROC Post West Harptree","ROC Bunker","Somerset","51.30228","-2.65419","ST 5449 5611","ST55","BS40 6EJ","IO81QH"
"B/G-0725","ROC Post Marston Magna","ROC Bunker","Somerset","51.02722","-2.58572","ST 5902 2548","ST52","BA22 7PH","IO81QA"
"B/G-0726","ROC Post Shepton Mallett","ROC Bunker","Somerset","51.18269","-2.56823","ST 6038 4276","ST64","BA4 4FJ","IO81RE"
"B/G-0727","ROC Post Clutton Master Post","ROC Bunker","Somerset","51.33814","-2.51445","ST 6426 6002","ST66","BA2 0HL","IO81RI"
"B/G-0728","ROC Post Keynsham","ROC Bunker","Somerset","51.39080","-2.47925","ST 6675 6586","ST66","BS31 2TD","IO81SJ"
"B/G-0729","ROC Post Bruton","ROC Bunker","Somerset","51.10829","-2.45290","ST 6839 3443","ST63","BA10 0NS","IO81SC"
"B/G-0730","ROC Post Radstock","ROC Bunker","Somerset","51.28743","-2.44749","ST 6889 5435","ST65","BA3 3QJ","IO81SG"
"B/G-0731","ROC Post Templecombe","ROC Bunker","Somerset","50.99328","-2.42827","ST 7004 2163","ST72","BA8 0PG","IO80SX"
"B/G-0732","ROC Post Frome","ROC Bunker","Somerset","51.23555","-2.33913","ST 7642 4854","ST74","BA11 3ND","IO81TF"
"B/G-0735","ROC Post Silverdale","ROC Bunker","Staffordshire","53.02644","-2.27862","SJ 8141 4772","SJ84","ST7 8BS","IO83UA"
"B/G-0736","ROC Post Standon","ROC Bunker","Staffordshire","52.90672","-2.27205","SJ 8180 3440","SJ83","ST21 6QS","IO82UV"
"B/G-0737","ROC Post Gnosall","ROC Bunker","Staffordshire","52.78697","-2.23646","SJ 8415 2107","SJ82","ST20 0LU","IO82VS"
"B/G-0738","ROC Post Endon","ROC Bunker","Staffordshire","53.08485","-2.13866","SJ 9081 5419","SJ95","ST6 8SZ","IO83WC"
"B/G-0739","ROC Post Longton - Staffordshire","ROC Bunker","Staffordshire","52.99778","-2.10575","SJ 9300 4450","SJ94","ST3 5HJ","IO82WX"
"B/G-0740","ROC Post Rushton Spencer","ROC Bunker","Staffordshire","53.16544","-2.09060","SJ 9404 6315","SJ96","SK11 0RR","IO83WD"
"B/G-0741","ROC Post Cheslyn Hay","ROC Bunker","Staffordshire","52.67060","-2.04728","SJ 9690 0810","SJ90","WS11 0LT","IO82XQ"
"B/G-0742","ROC Post Weston-on-Trent","ROC Bunker","Staffordshire","52.84860","-2.02921","SJ 9813 2790","SJ92","ST18 0HP","IO82XU"
"B/G-0743","ROC Post Walsall","ROC Bunker","West Midlands","52.59869","-2.02757","SJ 9823 0010","SJ90","WV12 4BD","IO82XO"
"B/G-0744","ROC Post Ipstones","ROC Bunker","Staffordshire","53.04834","-1.97729","SK 0162 5012","SK05","ST10 2JY","IO93AB"
"B/G-0745","ROC Post Rugeley","ROC Bunker","Staffordshire","52.76632","-1.91044","SK 0614 1875","SK01","WS15 3HJ","IO92BS"
"B/G-0746","ROC Post Shenstone","ROC Bunker","Staffordshire","52.64496","-1.83118","SK 1152 0526","SK10","WS14 0DW","IO92CP"
"B/G-0747","ROC Post Hoar Cross","ROC Bunker","Staffordshire","52.80544","-1.78784","SK 1440 2312","SK12","DE13 8RQ","IO92CT"
"B/G-0748","ROC Post Harlaston (Staffs)","ROC Bunker","Staffordshire","52.68536","-1.71090","SK 1964 0978","SK10","B79 9BL","IO92DQ"
"B/G-0749","ROC Post Polesworth","ROC Bunker","Staffordshire","52.61703","-1.64105","SK 2440 0220","SK20","B77 4PR","IO92EO"
"B/G-0750","ROC Post Bobbington","ROC Bunker","Staffordshire","52.51656","-2.27862","SO 8119 9100","SO89","DY7 5DX","IO82UM"
"B/G-0751","ROC Post Brierley Hill","ROC Bunker","West Midlands","52.50405","-2.12474","SO 9163 8958","SO98","DY5 4JH","IO82WM"
"B/G-0752","ROC Post Hopton","ROC Bunker","Suffolk","52.52968","1.73916","TM 5371 9899","TM59","NR32 5LG","JO02UM"
"B/G-0753","ROC Post Haverhill","ROC Bunker","Suffolk","52.08867","0.44547","TL 6764 4619","TL64","CB9 0AA","JO02FC"
"B/G-0754","ROC Post Isleham","ROC Bunker","Suffolk","52.35088","0.48048","TL 6904 7543","TL67","IP28 8WL","JO02FI"
"B/G-0755","ROC Post Cheveley","ROC Bunker","Suffolk","52.23457","0.47794","TL 6931 6249","TL66","CB8 9FA","JO02FF"
"B/G-0756","ROC Post Kentford","ROC Bunker","Suffolk","52.26003","0.51160","TL 7151 6540","TL76","CB8 8RP","JO02GG"
"B/G-0757","ROC Post Lakenheath","ROC Bunker","Suffolk","52.41424","0.53727","TL 7266 8261","TL78","IP27 9EY","JO02GJ"
"B/G-0758","ROC Post Wickhambrook","ROC Bunker","Suffolk","52.15761","0.55729","TL 7503 5412","TL75","CB8 8YJ","JO02GD"
"B/G-0759","ROC Post Bury St. Edmunds","ROC Bunker","Suffolk","52.22984","0.67802","TL 8299 6245","TL86","IP29 5PJ","JO02IF"
"B/G-0760","ROC Post Hartest","ROC Bunker","Suffolk","52.13783","0.68652","TL 8395 5224","TL85","IP29 4ET","JO02ID"
"B/G-0761","ROC Post Culford","ROC Bunker","Suffolk","52.30452","0.71172","TL 8498 7084","TL87","IP31 1NW","JO02IH"
"B/G-0762","ROC Post Sudbury","ROC Bunker","Suffolk","52.05733","0.74938","TL 8859 4345","TL84","CO10 0UA","JO02IB"
"B/G-0763","ROC Post Lavenham","ROC Bunker","Suffolk","52.10277","0.79803","TL 9173 4863","TL94","CO10 9TQ","JO02JC"
"B/G-0764","ROC Post Beyton","ROC Bunker","Suffolk","52.22842","0.84225","TL 9421 6272","TL96","IP30 9AQ","JO02KF"
"B/G-0765","ROC Post Honington - Suffolk","ROC Bunker","Suffolk","52.31966","0.85529","TL 9470 7290","TL97","IP31 1BD","JO02KH"
"B/G-0766","ROC Post Hadleigh","ROC Bunker","Suffolk","52.04353","0.96599","TM 0350 4250","TM04","IP7 5SX","JO02LB"
"B/G-0767","ROC Post Coombes","ROC Bunker","Suffolk","52.17359","0.98663","TM 0432 5702","TM05","IP14 2EJ","JO02LE"
"B/G-0768","ROC Post Botesdale","ROC Bunker","Suffolk","52.32816","1.01245","TM 0537 7428","TM07","IP22 1LH","JO02MH"
"B/G-0769","ROC Post Bacton","ROC Bunker","Suffolk","52.25943","1.02039","TM 0623 6666","TM06","IP14 4HP","JO02MG"
"B/G-0770","ROC Post Claydon","ROC Bunker","Suffolk","52.10163","1.11560","TM 1348 4939","TM14","IP6 0DW","JO02NC"
"B/G-0771","ROC Post Crowfield","ROC Bunker","Suffolk","52.16111","1.15499","TM 1589 5612","TM15","IP6 9TS","JO02ND"
"B/G-0772","ROC Post Debenham","ROC Bunker","Suffolk","52.23144","1.17536","TM 1694 6400","TM16","IP14 6PP","JO02OF"
"B/G-0773","ROC Post Woolverstone","ROC Bunker","Suffolk","51.99094","1.19546","TM 1949 3732","TM13","IP9 1HN","JO01OX"
"B/G-0774","ROC Post Grundisburgh","ROC Bunker","Suffolk","52.11563","1.25653","TM 2306 5137","TM25","IP13 6PX","JO02PC"
"B/G-0775","ROC Post Stradbroke","ROC Bunker","Suffolk","52.31978","1.28296","TM 2384 7415","TM27","IP21 5HY","JO02PH"
"B/G-0776","ROC Post Felixstowe","ROC Bunker","Suffolk","51.94919","1.33542","TM 2931 3311","TM23","IP11 2EF","JO01QW"
"B/G-0777","ROC Post Wickham Market","ROC Bunker","Suffolk","52.14541","1.36820","TM 3055 5503","TM35","IP13 0NH","JO02QD"
"B/G-0778","ROC Post Badingham","ROC Bunker","Suffolk","52.25894","1.39542","TM 3182 6774","TM36","IP13 8NB","JO02QG"
"B/G-0779","ROC Post Bungay","ROC Bunker","Suffolk","52.42718","1.41276","TM 3212 8650","TM38","NR35 1NL","JO02QK"
"B/G-0780","ROC Post Alderton","ROC Bunker","Suffolk","52.01675","1.41960","TM 3474 4089","TM34","IP12 3FF","JO02RA"
"B/G-0781","ROC Post Saxmundham","ROC Bunker","Suffolk","52.21674","1.50071","TM 3923 6339","TM36","IP17 1FT","JO02SF"
"B/G-0782","ROC Post Halesworth","ROC Bunker","Suffolk","52.35491","1.52455","TM 4011 7883","TM47","IP19 8NJ","JO02SI"
"B/G-0783","ROC Post Orford","ROC Bunker","Suffolk","52.08933","1.51744","TM 4106 4928","TM44","IP12 2BU","JO02SC"
"B/G-0784","ROC Post Westleton","ROC Bunker","Suffolk","52.26576","1.58154","TM 4448 6911","TM46","IP17 3AX","JO02SG"
"B/G-0785","ROC Post Barnby","ROC Bunker","Suffolk","52.43293","1.62114","TM 4625 8783","TM48","NR34 7XE","JO02TK"
"B/G-0786","ROC Post Aldeburgh","ROC Bunker","Suffolk","52.18891","1.62101","TM 4766 07","TM46","P16 4UB","JO02TE"
"B/G-0787","ROC Post Southwold","ROC Bunker","Suffolk","52.33840","1.68785","TM 5132 7755","TM57","IP18 6SU","JO02UI"
"B/G-0788","ROC Post Kessingland","ROC Bunker","Suffolk","52.39594","1.71456","TM 5281 8404","TM58","NR34 7LN","JO02UJ"
"B/G-0789","ROC Post Pakefield","ROC Bunker","Suffolk","52.43228","1.72880","TM 5357 8813","TM58","NR33 7PQ","JO02UK"
"B/G-0790","ROC Post Lowestoft","ROC Bunker","Suffolk","52.50130","1.75057","TM 5465 9588","TM59","NR32 4LD","JO02VM"
"B/G-0791","ROC Post Farnham","ROC Bunker","Surrey","51.23783","-0.80215","SU 8372 4942","SU84","GU9 0EQ","IO91OF"
"B/G-0792","ROC Post Camberley","ROC Bunker","Surrey","51.32426","-0.69427","SU 9108 5916","SU95","GU15 1QL","IO91PH"
"B/G-0793","ROC Post Milford","ROC Bunker","Surrey","51.17930","-0.64658","SU 9470 4310","SU94","GU8 5EP","IO91QE"
"B/G-0794","ROC Post Wormley","ROC Bunker","Surrey","51.10331","-0.64651","SU 9486 3465","SU93","GU8 4SJ","IO91QC"
"B/G-0795","ROC Post Hog's Back","ROC Bunker","Surrey","51.22827","-0.60504","SU 9750 4860","SU94","GU2 7RW","IO91QF"
"B/G-0796","ROC Post Cranleigh","ROC Bunker","Surrey","51.11246","-0.54681","TQ 0182 3580","TQ03","GU8 4NP","IO91RC"
"B/G-0797","ROC Post Clandon","ROC Bunker","Surrey","51.24587","-0.49390","TQ 0522 5071","TQ05","GU4 8SG","IO91SF"
"B/G-0798","ROC Post Weybridge","ROC Bunker","Surrey","51.38294","-0.44759","TQ 0813 6602","TQ06","KT13 8LY","IO91SJ"
"B/G-0799","ROC Post Oxshott","ROC Bunker","Surrey","51.34823","-0.35542","TQ 1463 6230","TQ16","KT22 0PR","IO91TI"
"B/G-0800","ROC Post Holmwood","ROC Bunker","Surrey","51.19671","-0.32404","TQ 1720 4550","TQ14","RH5 4NR","IO91UE"
"B/G-0801","ROC Post Headley","ROC Bunker","Surrey","51.27261","-0.27440","TQ 2047 5402","TQ25","KT18 6NJ","IO91UG"
"B/G-0802","ROC Post Mortlake","ROC Bunker","Greater London","51.45887","-0.25817","TQ 2111 7476","TQ27","SW14 8RE","IO91UL"
"B/G-0803","ROC Post New Malden","ROC Bunker","Greater London","51.41310","-0.25833","TQ 2122 6967","TQ26","KT3 4SB","IO91UJ"
"B/G-0804","ROC Post Wallington","ROC Bunker","Greater London","51.34368","-0.15270","TQ 2876 6213","TQ26","SM6 0SR","IO91WI"
"B/G-0805","ROC Post Redhill","ROC Bunker","Surrey","51.21591","-0.14822","TQ 2943 4793","TQ24","RH1 5JX","IO91WF"
"B/G-0806","ROC Post Compton","ROC Bunker","West Sussex","50.92863","-0.87087","SU 7945 1496","SU71","PO18 9NL","IO90NW"
"B/G-0807","ROC Post Rogate","ROC Bunker","West Sussex","51.00454","-0.85306","SU 8057 2342","SU82","GU31 5BF","IO91NA"
"B/G-0808","ROC Post Chichester","ROC Bunker","West Sussex","50.81812","-0.80837","SU 8404 0274","SU80","PO20 7DS","IO90OT"
"B/G-0809","ROC Post Midhurst","ROC Bunker","West Sussex","50.96950","-0.76847","SU 8657 1962","SU81","GU29 0NB","IO90OX"
"B/G-0810","ROC Post Singleton","ROC Bunker","West Sussex","50.90643","-0.74866","SU 8808 1263","SU81","PO18 0GW","IO90PV"
"B/G-0811","ROC Post Pagham","ROC Bunker","West Sussex","50.79574","-0.73275","SU 8941 0034","SU80","PO20 1LN","IO90PT"
"B/G-0812","ROC Post Fernhurst","ROC Bunker","West Sussex","51.04764","-0.71775","SU 8998 2837","SU82","GU27 3HY","IO91PB"
"B/G-0813","ROC Post Petworth","ROC Bunker","West Sussex","50.93475","-0.63547","SU 9598 1592","SU91","GU28 0LT","IO90QW"
"B/G-0814","ROC Post Littlehampton","ROC Bunker","West Sussex","50.82042","-0.58756","SU 9959 0327","SU90","BN18 0XL","IO90QT"
"B/G-0815","ROC Post Selsey","ROC Bunker","West Sussex","50.74688","-0.79842","SZ 8487 9483","SZ89","PO20 9DR","IO90OR"
"B/G-0816","ROC Post Pulborough","ROC Bunker","West Sussex","50.96528","-0.48576","TQ 0643 1952","TQ01","RH20 2HZ","IO90SX"
"B/G-0817","ROC Post Billingshurst","ROC Bunker","West Sussex","51.02140","-0.43802","TQ 0965 2583","TQ02","RH14 9FB","IO91SA"
"B/G-0818","ROC Post Lancing","ROC Bunker","West Sussex","50.81956","-0.33814","TQ 1716 0354","TQ10","BN15 8RX","IO90TT"
"B/G-0819","ROC Post Steyning","ROC Bunker","West Sussex","50.88046","-0.33285","TQ 1738 1032","TQ11","BN44 3PD","IO90UV"
"B/G-0820","ROC Post Horsham","ROC Bunker","West Sussex","51.05536","-0.31944","TQ 1788 2979","TQ12","RH13 6HE","IO91UB"
"B/G-0821","ROC Post Henfield","ROC Bunker","West Sussex","50.93265","-0.26111","TQ 2229 1624","TQ21","BN5 9HS","IO90UW"
"B/G-0822","ROC Post Southwick","ROC Bunker","East Sussex","50.85032","-0.23988","TQ 2400 0712","TQ20","BN41 2RP","IO90VU"
"B/G-0823","ROC Post Crawley","ROC Bunker","West Sussex","51.14505","-0.20038","TQ 2598 3996","TQ23","RH11 0QA","IO91VD"
"B/G-0824","ROC Post Cuckfield","ROC Bunker","West Sussex","51.00410","-0.14113","TQ 3052 2439","TQ32","RH17 5JZ","IO91WA"
"B/G-0825","ROC Post Ditchling","ROC Bunker","East Sussex","50.92487","-0.11840","TQ 3234 1562","TQ31","BN6 8SS","IO90WW"
"B/G-0826","ROC Post Brighton","ROC Bunker","East Sussex","50.82487","-0.11319","TQ 3299 0451","TQ30","BN2 0FR","IO90WT"
"B/G-0827","ROC Post West Hoathly","ROC Bunker","West Sussex","51.07627","-0.05530","TQ 3633 3257","TQ33","RH19 4PW","IO91XB"
"B/G-0828","ROC Post Lewes","ROC Bunker","East Sussex","50.88405","-0.02109","TQ 3930 1126","TQ31","BN7 1UR","IO90XV"
"B/G-0829","ROC Post Peacehaven","ROC Bunker","East Sussex","50.78791","0.00507","TQ 4143 0062","TQ40","BN10 8ND","JO00AS"
"B/G-0830","ROC Post Newick","ROC Bunker","East Sussex","50.98630","0.02116","TQ 4196 2271","TQ42","TN22 3PY","JO00AX"
"B/G-0831","ROC Post Newhaven","ROC Bunker","East Sussex","50.78205","0.04738","TQ 4443 0005","TQ40","BN9 9HD","JO00AS"
"B/G-0832","ROC Post Hartfield","ROC Bunker","East Sussex","51.09084","0.11025","TQ 4788 3451","TQ43","TN7 4HA","JO01BC"
